[
    { 
      "province": "กรุงเทพมหานคร",
      "district": "พระนคร",
      "subdistrict": "พระบรมมหาราชวัง",
      "postcode": 10200,
      "latitude": 13.751,
      "longitude": 100.492
    },
    {
      "province": "กรุงเทพมหานคร",
      "district": "พระนคร",
      "subdistrict": "วังบูรพาภิรมย์",
      "postcode": 10200,
      "latitude": 13.744,
      "longitude": 100.499
    },
    {
      "province": "กรุงเทพมหานคร",
      "district": "พระนคร",
      "subdistrict": "วัดราชบพิธ",
      "postcode": 10200,
      "latitude": 13.75,
      "longitude": 100.499
    },
    {
      "province": "กรุงเทพมหานคร",
      "district": "พระนคร",
      "subdistrict": "สำราญราษฎร์",
      "postcode": 10200,
      "latitude": 13.751,
      "longitude": 100.503
    },
    {
      "province": "กรุงเทพมหานคร",
      "district": "พระนคร",
      "subdistrict": "ศาลเจ้าพ่อเสือ",
      "postcode": 10200,
      "latitude": 13.754,
      "longitude": 100.497
    },
    {
      "province": "กรุงเทพมหานคร",
      "district": "พระนคร",
      "subdistrict": "เสาชิงช้า",
      "postcode": 10200,
      "latitude": 13.753,
      "longitude": 100.5
    },
    {
      "province": "กรุงเทพมหานคร",
      "district": "พระนคร",
      "subdistrict": "บวรนิเวศ",
      "postcode": 10200,
      "latitude": 13.757,
      "longitude": 100.501
    },
    {
      "province": "กรุงเทพมหานคร",
      "district": "พระนคร",
      "subdistrict": "ตลาดยอด",
      "postcode": 10200,
      "latitude": 13.76,
      "longitude": 100.498
    },
    {
      "province": "กรุงเทพมหานคร",
      "district": "พระนคร",
      "subdistrict": "ชนะสงคราม",
      "postcode": 10200,
      "latitude": 13.762,
      "longitude": 100.495
    },
    {
      "province": "กรุงเทพมหานคร",
      "district": "พระนคร",
      "subdistrict": "บ้านพานถม",
      "postcode": 10200,
      "latitude": 13.762,
      "longitude": 100.503
    },
    {
      "province": "กรุงเทพมหานคร",
      "district": "พระนคร",
      "subdistrict": "บางขุนพรหม",
      "postcode": 10200,
      "latitude": 13.765,
      "longitude": 100.505
    },
    {
      "province": "กรุงเทพมหานคร",
      "district": "พระนคร",
      "subdistrict": "วัดสามพระยา",
      "postcode": 10200,
      "latitude": 13.768,
      "longitude": 100.499
    },
    {
      "province": "กรุงเทพมหานคร",
      "district": "ดุสิต",
      "subdistrict": "ดุสิต",
      "postcode": 10300,
      "latitude": 13.772,
      "longitude": 100.513
    },
    {
      "province": "กรุงเทพมหานคร",
      "district": "ดุสิต",
      "subdistrict": "วชิรพยาบาล",
      "postcode": 10300,
      "latitude": 13.778,
      "longitude": 100.505
    },
    {
      "province": "กรุงเทพมหานคร",
      "district": "ดุสิต",
      "subdistrict": "สวนจิตรลดา",
      "postcode": 10300,
      "latitude": 13.767,
      "longitude": 100.52
    },
    {
      "province": "กรุงเทพมหานคร",
      "district": "ดุสิต",
      "subdistrict": "สี่แยกมหานาค",
      "postcode": 10300,
      "latitude": 13.758,
      "longitude": 100.517
    },
    {
      "province": "กรุงเทพมหานคร",
      "district": "ดุสิต",
      "subdistrict": "ถนนนครไชยศรี",
      "postcode": 10300,
      "latitude": 13.789,
      "longitude": 100.522
    },
    {
      "province": "กรุงเทพมหานคร",
      "district": "หนองจอก",
      "subdistrict": "กระทุ่มราย",
      "postcode": 10530,
      "latitude": 13.823,
      "longitude": 100.897
    },
    {
      "province": "กรุงเทพมหานคร",
      "district": "หนองจอก",
      "subdistrict": "หนองจอก",
      "postcode": 10530,
      "latitude": 13.869,
      "longitude": 100.885
    },
    {
      "province": "กรุงเทพมหานคร",
      "district": "หนองจอก",
      "subdistrict": "คลองสิบ",
      "postcode": 10530,
      "latitude": 13.914,
      "longitude": 100.82
    },
    {
      "province": "กรุงเทพมหานคร",
      "district": "หนองจอก",
      "subdistrict": "คลองสิบสอง",
      "postcode": 10530,
      "latitude": 13.914,
      "longitude": 100.88
    },
    {
      "province": "กรุงเทพมหานคร",
      "district": "หนองจอก",
      "subdistrict": "โคกแฝด",
      "postcode": 10530,
      "latitude": 13.84,
      "longitude": 100.836
    },
    {
      "province": "กรุงเทพมหานคร",
      "district": "หนองจอก",
      "subdistrict": "คู้ฝั่งเหนือ",
      "postcode": 10530,
      "latitude": 13.872,
      "longitude": 100.81
    },
    {
      "province": "กรุงเทพมหานคร",
      "district": "หนองจอก",
      "subdistrict": "ลำผักชี",
      "postcode": 10530,
      "latitude": 13.797,
      "longitude": 100.844
    },
    {
      "province": "กรุงเทพมหานคร",
      "district": "หนองจอก",
      "subdistrict": "ลำต้อยติ่ง",
      "postcode": 10530,
      "latitude": 13.781,
      "longitude": 100.877
    },
    {
      "province": "กรุงเทพมหานคร",
      "district": "บางรัก",
      "subdistrict": "มหาพฤฒาราม",
      "postcode": 10500,
      "latitude": 13.734,
      "longitude": 100.52
    },
    {
      "province": "กรุงเทพมหานคร",
      "district": "บางรัก",
      "subdistrict": "สีลม",
      "postcode": 10500,
      "latitude": 13.73,
      "longitude": 100.525
    },
    {
      "province": "กรุงเทพมหานคร",
      "district": "บางรัก",
      "subdistrict": "สุริยวงศ์",
      "postcode": 10500,
      "latitude": 13.724,
      "longitude": 100.53
    },
    {
      "province": "กรุงเทพมหานคร",
      "district": "บางรัก",
      "subdistrict": "บางรัก",
      "postcode": 10500,
      "latitude": 13.727,
      "longitude": 100.527
    },
    {
      "province": "กรุงเทพมหานคร",
      "district": "บางรัก",
      "subdistrict": "สี่พระยา",
      "postcode": 10500,
      "latitude": 13.725,
      "longitude": 100.514
    },
    {
      "province": "กรุงเทพมหานคร",
      "district": "บางเขน",
      "subdistrict": "อนุสาวรีย์",
      "postcode": 10220,
      "latitude": 13.868,
      "longitude": 100.606
    },
    {
      "province": "กรุงเทพมหานคร",
      "district": "บางเขน",
      "subdistrict": "ท่าแร้ง",
      "postcode": 10220,
      "latitude": 13.866,
      "longitude": 100.65
    },
    {
      "province": "กรุงเทพมหานคร",
      "district": "บางกะปิ",
      "subdistrict": "คลองจั่น",
      "postcode": 10240,
      "latitude": 13.786,
      "longitude": 100.635
    },
    {
      "province": "กรุงเทพมหานคร",
      "district": "บางกะปิ",
      "subdistrict": "หัวหมาก",
      "postcode": 10240,
      "latitude": 13.756,
      "longitude": 100.66
    },
    {
      "province": "กรุงเทพมหานคร",
      "district": "ปทุมวัน",
      "subdistrict": "รองเมือง",
      "postcode": 10330,
      "latitude": 13.744,
      "longitude": 100.52
    },
    {
      "province": "กรุงเทพมหานคร",
      "district": "ปทุมวัน",
      "subdistrict": "วังใหม่",
      "postcode": 10330,
      "latitude": 13.742,
      "longitude": 100.526
    },
    {
      "province": "กรุงเทพมหานคร",
      "district": "ปทุมวัน",
      "subdistrict": "ปทุมวัน",
      "postcode": 10330,
      "latitude": 13.74,
      "longitude": 100.535
    },
    {
      "province": "กรุงเทพมหานคร",
      "district": "ปทุมวัน",
      "subdistrict": "ลุมพินี",
      "postcode": 10330,
      "latitude": 13.736,
      "longitude": 100.546
    },
    {
      "province": "กรุงเทพมหานคร",
      "district": "ป้อมปราบศัตรูพ่าย",
      "subdistrict": "ป้อมปราบ",
      "postcode": 10100,
      "latitude": 13.743,
      "longitude": 100.514
    },
    {
      "province": "กรุงเทพมหานคร",
      "district": "ป้อมปราบศัตรูพ่าย",
      "subdistrict": "วัดเทพศิรินทร์",
      "postcode": 10100,
      "latitude": 13.749,
      "longitude": 100.512
    },
    {
      "province": "กรุงเทพมหานคร",
      "district": "ป้อมปราบศัตรูพ่าย",
      "subdistrict": "คลองมหานาค",
      "postcode": 10100,
      "latitude": 13.753,
      "longitude": 100.513
    },
    {
      "province": "กรุงเทพมหานคร",
      "district": "ป้อมปราบศัตรูพ่าย",
      "subdistrict": "บ้านบาตร",
      "postcode": 10100,
      "latitude": 13.752,
      "longitude": 100.507
    },
    {
      "province": "กรุงเทพมหานคร",
      "district": "ป้อมปราบศัตรูพ่าย",
      "subdistrict": "วัดโสมนัส",
      "postcode": 10100,
      "latitude": 13.759,
      "longitude": 100.511
    },
    {
      "province": "กรุงเทพมหานคร",
      "district": "พระโขนง",
      "subdistrict": "บางจาก",
      "postcode": 10260,
      "latitude": 13.692,
      "longitude": 100.626
    },
    {
      "province": "กรุงเทพมหานคร",
      "district": "มีนบุรี",
      "subdistrict": "มีนบุรี",
      "postcode": 10510,
      "latitude": 13.804,
      "longitude": 100.723
    },
    {
      "province": "กรุงเทพมหานคร",
      "district": "มีนบุรี",
      "subdistrict": "แสนแสบ",
      "postcode": 10510,
      "latitude": 13.812,
      "longitude": 100.774
    },
    {
      "province": "กรุงเทพมหานคร",
      "district": "ลาดกระบัง",
      "subdistrict": "ลาดกระบัง",
      "postcode": 10520,
      "latitude": 13.723,
      "longitude": 100.771
    },
    {
      "province": "กรุงเทพมหานคร",
      "district": "ลาดกระบัง",
      "subdistrict": "คลองสองต้นนุ่น",
      "postcode": 10520,
      "latitude": 13.753,
      "longitude": 100.723
    },
    {
      "province": "กรุงเทพมหานคร",
      "district": "ลาดกระบัง",
      "subdistrict": "คลองสามประเวศ",
      "postcode": 10520,
      "latitude": 13.753,
      "longitude": 100.754
    },
    {
      "province": "กรุงเทพมหานคร",
      "district": "ลาดกระบัง",
      "subdistrict": "ลำปลาทิว",
      "postcode": 10520,
      "latitude": 13.765,
      "longitude": 100.817
    },
    {
      "province": "กรุงเทพมหานคร",
      "district": "ลาดกระบัง",
      "subdistrict": "ทับยาว",
      "postcode": 10520,
      "latitude": 13.728,
      "longitude": 100.815
    },
    {
      "province": "กรุงเทพมหานคร",
      "district": "ลาดกระบัง",
      "subdistrict": "ขุมทอง",
      "postcode": 10520,
      "latitude": 13.736,
      "longitude": 100.855
    },
    {
      "province": "กรุงเทพมหานคร",
      "district": "ยานนาวา",
      "subdistrict": "ช่องนนทรี",
      "postcode": 10120,
      "latitude": 13.682,
      "longitude": 100.533
    },
    {
      "province": "กรุงเทพมหานคร",
      "district": "ยานนาวา",
      "subdistrict": "บางโพงพาง",
      "postcode": 10120,
      "latitude": 13.697,
      "longitude": 100.544
    },
    {
      "province": "กรุงเทพมหานคร",
      "district": "สัมพันธวงศ์",
      "subdistrict": "จักรวรรดิ",
      "postcode": 10100,
      "latitude": 13.741,
      "longitude": 100.504
    },
    {
      "province": "กรุงเทพมหานคร",
      "district": "สัมพันธวงศ์",
      "subdistrict": "สัมพันธวงศ์",
      "postcode": 10100,
      "latitude": 13.739,
      "longitude": 100.511
    },
    {
      "province": "กรุงเทพมหานคร",
      "district": "สัมพันธวงศ์",
      "subdistrict": "ตลาดน้อย",
      "postcode": 10100,
      "latitude": 13.734,
      "longitude": 100.513
    },
    {
      "province": "กรุงเทพมหานคร",
      "district": "พญาไท",
      "subdistrict": "สามเสนใน",
      "postcode": 10400,
      "latitude": 13.782,
      "longitude": 100.545
    },
    {
      "province": "กรุงเทพมหานคร",
      "district": "ธนบุรี",
      "subdistrict": "วัดกัลยาณ์",
      "postcode": 10600,
      "latitude": 13.737,
      "longitude": 100.493
    },
    {
      "province": "กรุงเทพมหานคร",
      "district": "ธนบุรี",
      "subdistrict": "หิรัญรูจี",
      "postcode": 10600,
      "latitude": 13.731,
      "longitude": 100.49
    },
    {
      "province": "กรุงเทพมหานคร",
      "district": "ธนบุรี",
      "subdistrict": "บางยี่เรือ",
      "postcode": 10600,
      "latitude": 13.72,
      "longitude": 100.482
    },
    {
      "province": "กรุงเทพมหานคร",
      "district": "ธนบุรี",
      "subdistrict": "บุคคโล",
      "postcode": 10600,
      "latitude": 13.707,
      "longitude": 100.486
    },
    {
      "province": "กรุงเทพมหานคร",
      "district": "ธนบุรี",
      "subdistrict": "ตลาดพลู",
      "postcode": 10600,
      "latitude": 13.715,
      "longitude": 100.473
    },
    {
      "province": "กรุงเทพมหานคร",
      "district": "ธนบุรี",
      "subdistrict": "ดาวคะนอง",
      "postcode": 10600,
      "latitude": null,
      "longitude": null
    },
    {
      "province": "กรุงเทพมหานคร",
      "district": "ธนบุรี",
      "subdistrict": "สำเหร่",
      "postcode": 10600,
      "latitude": null,
      "longitude": null
    },
    {
      "province": "กรุงเทพมหานคร",
      "district": "บางกอกใหญ่",
      "subdistrict": "วัดอรุณ",
      "postcode": 10600,
      "latitude": 13.743,
      "longitude": 100.486
    },
    {
      "province": "กรุงเทพมหานคร",
      "district": "บางกอกใหญ่",
      "subdistrict": "วัดท่าพระ",
      "postcode": 10600,
      "latitude": 13.733,
      "longitude": 100.475
    },
    {
      "province": "กรุงเทพมหานคร",
      "district": "ห้วยขวาง",
      "subdistrict": "ห้วยขวาง",
      "postcode": 10310,
      "latitude": 13.769,
      "longitude": 100.577
    },
    {
      "province": "กรุงเทพมหานคร",
      "district": "ห้วยขวาง",
      "subdistrict": "บางกะปิ",
      "postcode": 10310,
      "latitude": 13.752,
      "longitude": 100.586
    },
    {
      "province": "กรุงเทพมหานคร",
      "district": "ห้วยขวาง",
      "subdistrict": "สามเสนนอก",
      "postcode": 10310,
      "latitude": 13.796,
      "longitude": 100.579
    },
    {
      "province": "กรุงเทพมหานคร",
      "district": "คลองสาน",
      "subdistrict": "สมเด็จเจ้าพระยา",
      "postcode": 10600,
      "latitude": 13.731,
      "longitude": 100.497
    },
    {
      "province": "กรุงเทพมหานคร",
      "district": "คลองสาน",
      "subdistrict": "คลองสาน",
      "postcode": 10600,
      "latitude": 13.735,
      "longitude": 100.504
    },
    {
      "province": "กรุงเทพมหานคร",
      "district": "คลองสาน",
      "subdistrict": "บางลำภูล่าง",
      "postcode": 10600,
      "latitude": 13.715,
      "longitude": 100.501
    },
    {
      "province": "กรุงเทพมหานคร",
      "district": "คลองสาน",
      "subdistrict": "คลองต้นไทร",
      "postcode": 10600,
      "latitude": 13.725,
      "longitude": 100.508
    },
    {
      "province": "กรุงเทพมหานคร",
      "district": "ตลิ่งชัน",
      "subdistrict": "คลองชักพระ",
      "postcode": 10170,
      "latitude": 13.76,
      "longitude": 100.456
    },
    {
      "province": "กรุงเทพมหานคร",
      "district": "ตลิ่งชัน",
      "subdistrict": "ตลิ่งชัน",
      "postcode": 10170,
      "latitude": 13.789,
      "longitude": 100.459
    },
    {
      "province": "กรุงเทพมหานคร",
      "district": "ตลิ่งชัน",
      "subdistrict": "ฉิมพลี",
      "postcode": 10170,
      "latitude": 13.786,
      "longitude": 100.432
    },
    {
      "province": "กรุงเทพมหานคร",
      "district": "ตลิ่งชัน",
      "subdistrict": "บางพรม",
      "postcode": 10170,
      "latitude": 13.752,
      "longitude": 100.442
    },
    {
      "province": "กรุงเทพมหานคร",
      "district": "ตลิ่งชัน",
      "subdistrict": "บางระมาด",
      "postcode": 10170,
      "latitude": 13.767,
      "longitude": 100.431
    },
    {
      "province": "กรุงเทพมหานคร",
      "district": "ตลิ่งชัน",
      "subdistrict": "บางเชือกหนัง",
      "postcode": 10170,
      "latitude": 13.751,
      "longitude": 100.419
    },
    {
      "province": "กรุงเทพมหานคร",
      "district": "บางกอกน้อย",
      "subdistrict": "ศิริราช",
      "postcode": 10700,
      "latitude": 13.759,
      "longitude": 100.481
    },
    {
      "province": "กรุงเทพมหานคร",
      "district": "บางกอกน้อย",
      "subdistrict": "บ้านช่างหล่อ",
      "postcode": 10700,
      "latitude": 13.752,
      "longitude": 100.477
    },
    {
      "province": "กรุงเทพมหานคร",
      "district": "บางกอกน้อย",
      "subdistrict": "บางขุนนนท์",
      "postcode": 10700,
      "latitude": 13.774,
      "longitude": 100.466
    },
    {
      "province": "กรุงเทพมหานคร",
      "district": "บางกอกน้อย",
      "subdistrict": "บางขุนศรี",
      "postcode": 10700,
      "latitude": 13.76,
      "longitude": 100.463
    },
    {
      "province": "กรุงเทพมหานคร",
      "district": "บางกอกน้อย",
      "subdistrict": "อรุณอมรินทร์",
      "postcode": 10700,
      "latitude": 13.772,
      "longitude": 100.477
    },
    {
      "province": "กรุงเทพมหานคร",
      "district": "บางขุนเทียน",
      "subdistrict": "ท่าข้าม",
      "postcode": 10150,
      "latitude": 13.555,
      "longitude": 100.434
    },
    {
      "province": "กรุงเทพมหานคร",
      "district": "บางขุนเทียน",
      "subdistrict": "แสมดำ",
      "postcode": 10150,
      "latitude": 13.605,
      "longitude": 100.395
    },
    {
      "province": "กรุงเทพมหานคร",
      "district": "ภาษีเจริญ",
      "subdistrict": "บางหว้า",
      "postcode": 10160,
      "latitude": 13.714,
      "longitude": 100.443
    },
    {
      "province": "กรุงเทพมหานคร",
      "district": "ภาษีเจริญ",
      "subdistrict": "บางด้วน",
      "postcode": 10160,
      "latitude": 13.723,
      "longitude": 100.437
    },
    {
      "province": "กรุงเทพมหานคร",
      "district": "ภาษีเจริญ",
      "subdistrict": "บางจาก",
      "postcode": 10160,
      "latitude": 13.727,
      "longitude": 100.45
    },
    {
      "province": "กรุงเทพมหานคร",
      "district": "ภาษีเจริญ",
      "subdistrict": "บางแวก",
      "postcode": 10160,
      "latitude": 13.736,
      "longitude": 100.445
    },
    {
      "province": "กรุงเทพมหานคร",
      "district": "ภาษีเจริญ",
      "subdistrict": "คลองขวาง",
      "postcode": 10160,
      "latitude": 13.738,
      "longitude": 100.423
    },
    {
      "province": "กรุงเทพมหานคร",
      "district": "ภาษีเจริญ",
      "subdistrict": "ปากคลองภาษีเจริญ",
      "postcode": 10160,
      "latitude": 13.722,
      "longitude": 100.464
    },
    {
      "province": "กรุงเทพมหานคร",
      "district": "ภาษีเจริญ",
      "subdistrict": "คูหาสวรรค์",
      "postcode": 10160,
      "latitude": 13.727,
      "longitude": 100.457
    },
    {
      "province": "กรุงเทพมหานคร",
      "district": "หนองแขม",
      "subdistrict": "หนองแขม",
      "postcode": 10160,
      "latitude": 13.68,
      "longitude": 100.358
    },
    {
      "province": "กรุงเทพมหานคร",
      "district": "หนองแขม",
      "subdistrict": "หนองค้างพลู",
      "postcode": 10160,
      "latitude": 13.714,
      "longitude": 100.351
    },
    {
      "province": "กรุงเทพมหานคร",
      "district": "ราษฎร์บูรณะ",
      "subdistrict": "ราษฎร์บูรณะ",
      "postcode": 10140,
      "latitude": 13.67,
      "longitude": 100.51
    },
    {
      "province": "กรุงเทพมหานคร",
      "district": "ราษฎร์บูรณะ",
      "subdistrict": "บางปะกอก",
      "postcode": 10140,
      "latitude": 13.675,
      "longitude": 100.491
    },
    {
      "province": "กรุงเทพมหานคร",
      "district": "บางพลัด",
      "subdistrict": "บางพลัด",
      "postcode": 10700,
      "latitude": 13.791,
      "longitude": 100.487
    },
    {
      "province": "กรุงเทพมหานคร",
      "district": "บางพลัด",
      "subdistrict": "บางอ้อ",
      "postcode": 10700,
      "latitude": 13.802,
      "longitude": 100.512
    },
    {
      "province": "กรุงเทพมหานคร",
      "district": "บางพลัด",
      "subdistrict": "บางบำหรุ",
      "postcode": 10700,
      "latitude": 13.781,
      "longitude": 100.482
    },
    {
      "province": "กรุงเทพมหานคร",
      "district": "บางพลัด",
      "subdistrict": "บางยี่ขัน",
      "postcode": 10700,
      "latitude": 13.774,
      "longitude": 100.492
    },
    {
      "province": "กรุงเทพมหานคร",
      "district": "ดินแดง",
      "subdistrict": "ดินแดง",
      "postcode": 10400,
      "latitude": 13.778,
      "longitude": 100.567
    },
    {
      "province": "กรุงเทพมหานคร",
      "district": "บึงกุ่ม",
      "subdistrict": "คลองกุ่ม",
      "postcode": 10240,
      "latitude": 13.808,
      "longitude": 100.65
    },
    {
      "province": "กรุงเทพมหานคร",
      "district": "บึงกุ่ม",
      "subdistrict": "นวมินทร์",
      "postcode": 10240,
      "latitude": null,
      "longitude": null
    },
    {
      "province": "กรุงเทพมหานคร",
      "district": "บึงกุ่ม",
      "subdistrict": "นวลจันทร์",
      "postcode": 10240,
      "latitude": null,
      "longitude": null
    },
    {
      "province": "กรุงเทพมหานคร",
      "district": "สาทร",
      "subdistrict": "ทุ่งวัดดอน",
      "postcode": 10120,
      "latitude": 13.71,
      "longitude": 100.532
    },
    {
      "province": "กรุงเทพมหานคร",
      "district": "สาทร",
      "subdistrict": "ยานนาวา",
      "postcode": 10120,
      "latitude": 13.714,
      "longitude": 100.514
    },
    {
      "province": "กรุงเทพมหานคร",
      "district": "สาทร",
      "subdistrict": "ทุ่งมหาเมฆ",
      "postcode": 10120,
      "latitude": 13.718,
      "longitude": 100.541
    },
    {
      "province": "กรุงเทพมหานคร",
      "district": "บางซื่อ",
      "subdistrict": "บางซื่อ",
      "postcode": 10800,
      "latitude": 13.82,
      "longitude": 100.529
    },
    {
      "province": "กรุงเทพมหานคร",
      "district": "บางซื่อ",
      "subdistrict": "วงศ์สว่าง",
      "postcode": 10800,
      "latitude": null,
      "longitude": null
    },
    {
      "province": "กรุงเทพมหานคร",
      "district": "จตุจักร",
      "subdistrict": "ลาดยาว",
      "postcode": 10900,
      "latitude": 13.826,
      "longitude": 100.565
    },
    {
      "province": "กรุงเทพมหานคร",
      "district": "จตุจักร",
      "subdistrict": "เสนานิคม",
      "postcode": 10900,
      "latitude": null,
      "longitude": null
    },
    {
      "province": "กรุงเทพมหานคร",
      "district": "จตุจักร",
      "subdistrict": "จันทรเกษม",
      "postcode": 10900,
      "latitude": null,
      "longitude": null
    },
    {
      "province": "กรุงเทพมหานคร",
      "district": "จตุจักร",
      "subdistrict": "จอมพล",
      "postcode": 10900,
      "latitude": null,
      "longitude": null
    },
    {
      "province": "กรุงเทพมหานคร",
      "district": "จตุจักร",
      "subdistrict": "จตุจักร",
      "postcode": 10900,
      "latitude": null,
      "longitude": null
    },
    {
      "province": "กรุงเทพมหานคร",
      "district": "บางคอแหลม",
      "subdistrict": "บางคอแหลม",
      "postcode": 10120,
      "latitude": 13.696,
      "longitude": 100.494
    },
    {
      "province": "กรุงเทพมหานคร",
      "district": "บางคอแหลม",
      "subdistrict": "วัดพระยาไกร",
      "postcode": 10120,
      "latitude": 13.706,
      "longitude": 100.508
    },
    {
      "province": "กรุงเทพมหานคร",
      "district": "บางคอแหลม",
      "subdistrict": "บางโคล่",
      "postcode": 10120,
      "latitude": 13.694,
      "longitude": 100.516
    },
    {
      "province": "กรุงเทพมหานคร",
      "district": "ประเวศ",
      "subdistrict": "ประเวศ",
      "postcode": 10250,
      "latitude": 13.719,
      "longitude": 100.664
    },
    {
      "province": "กรุงเทพมหานคร",
      "district": "ประเวศ",
      "subdistrict": "หนองบอน",
      "postcode": 10250,
      "latitude": 13.687,
      "longitude": 100.656
    },
    {
      "province": "กรุงเทพมหานคร",
      "district": "ประเวศ",
      "subdistrict": "ดอกไม้",
      "postcode": 10250,
      "latitude": 13.68,
      "longitude": 100.689
    },
    {
      "province": "กรุงเทพมหานคร",
      "district": "คลองเตย",
      "subdistrict": "คลองเตย",
      "postcode": 10110,
      "latitude": 13.71,
      "longitude": 100.57
    },
    {
      "province": "กรุงเทพมหานคร",
      "district": "คลองเตย",
      "subdistrict": "คลองตัน",
      "postcode": 10110,
      "latitude": 13.723,
      "longitude": 100.571
    },
    {
      "province": "กรุงเทพมหานคร",
      "district": "คลองเตย",
      "subdistrict": "พระโขนง",
      "postcode": 10110,
      "latitude": 13.707,
      "longitude": 100.595
    },
    {
      "province": "กรุงเทพมหานคร",
      "district": "สวนหลวง",
      "subdistrict": "สวนหลวง",
      "postcode": 10250,
      "latitude": 13.726,
      "longitude": 100.628
    },
    {
      "province": "กรุงเทพมหานคร",
      "district": "จอมทอง",
      "subdistrict": "บางขุนเทียน",
      "postcode": 10150,
      "latitude": 13.694,
      "longitude": 100.45
    },
    {
      "province": "กรุงเทพมหานคร",
      "district": "จอมทอง",
      "subdistrict": "บางค้อ",
      "postcode": 10150,
      "latitude": 13.702,
      "longitude": 100.476
    },
    {
      "province": "กรุงเทพมหานคร",
      "district": "จอมทอง",
      "subdistrict": "บางมด",
      "postcode": 10150,
      "latitude": 13.672,
      "longitude": 100.468
    },
    {
      "province": "กรุงเทพมหานคร",
      "district": "จอมทอง",
      "subdistrict": "จอมทอง",
      "postcode": 10150,
      "latitude": 13.693,
      "longitude": 100.468
    },
    {
      "province": "กรุงเทพมหานคร",
      "district": "ดอนเมือง",
      "subdistrict": "สีกัน",
      "postcode": 10210,
      "latitude": 13.925,
      "longitude": 100.593
    },
    {
      "province": "กรุงเทพมหานคร",
      "district": "ดอนเมือง",
      "subdistrict": "ดอนเมือง",
      "postcode": 10210,
      "latitude": null,
      "longitude": null
    },
    {
      "province": "กรุงเทพมหานคร",
      "district": "ดอนเมือง",
      "subdistrict": "สนามบิน",
      "postcode": 10210,
      "latitude": null,
      "longitude": null
    },
    {
      "province": "กรุงเทพมหานคร",
      "district": "ราชเทวี",
      "subdistrict": "ทุ่งพญาไท",
      "postcode": 10400,
      "latitude": 13.763,
      "longitude": 100.53
    },
    {
      "province": "กรุงเทพมหานคร",
      "district": "ราชเทวี",
      "subdistrict": "ถนนพญาไท",
      "postcode": 10400,
      "latitude": 13.757,
      "longitude": 100.538
    },
    {
      "province": "กรุงเทพมหานคร",
      "district": "ราชเทวี",
      "subdistrict": "ถนนเพชรบุรี",
      "postcode": 10400,
      "latitude": 13.752,
      "longitude": 100.559
    },
    {
      "province": "กรุงเทพมหานคร",
      "district": "ราชเทวี",
      "subdistrict": "มักกะสัน",
      "postcode": 10400,
      "latitude": 13.752,
      "longitude": 100.528
    },
    {
      "province": "กรุงเทพมหานคร",
      "district": "ลาดพร้าว",
      "subdistrict": "ลาดพร้าว",
      "postcode": 10230,
      "latitude": 13.811,
      "longitude": 100.612
    },
    {
      "province": "กรุงเทพมหานคร",
      "district": "ลาดพร้าว",
      "subdistrict": "จรเข้บัว",
      "postcode": 10230,
      "latitude": 13.84,
      "longitude": 100.6
    },
    {
      "province": "กรุงเทพมหานคร",
      "district": "วัฒนา",
      "subdistrict": "คลองเตยเหนือ",
      "postcode": 10110,
      "latitude": 13.743,
      "longitude": 100.56
    },
    {
      "province": "กรุงเทพมหานคร",
      "district": "วัฒนา",
      "subdistrict": "คลองตันเหนือ",
      "postcode": 10110,
      "latitude": 13.736,
      "longitude": 100.576
    },
    {
      "province": "กรุงเทพมหานคร",
      "district": "วัฒนา",
      "subdistrict": "พระโขนงเหนือ",
      "postcode": 10110,
      "latitude": 13.719,
      "longitude": 100.596
    },
    {
      "province": "กรุงเทพมหานคร",
      "district": "บางแค",
      "subdistrict": "บางแค",
      "postcode": 10160,
      "latitude": 13.698,
      "longitude": 100.409
    },
    {
      "province": "กรุงเทพมหานคร",
      "district": "บางแค",
      "subdistrict": "บางแคเหนือ",
      "postcode": 10160,
      "latitude": 13.72,
      "longitude": 100.4
    },
    {
      "province": "กรุงเทพมหานคร",
      "district": "บางแค",
      "subdistrict": "บางไผ่",
      "postcode": 10160,
      "latitude": 13.741,
      "longitude": 100.385
    },
    {
      "province": "กรุงเทพมหานคร",
      "district": "บางแค",
      "subdistrict": "หลักสอง",
      "postcode": 10160,
      "latitude": 13.683,
      "longitude": 100.396
    },
    {
      "province": "กรุงเทพมหานคร",
      "district": "หลักสี่",
      "subdistrict": "ทุ่งสองห้อง",
      "postcode": 10210,
      "latitude": 13.883,
      "longitude": 100.564
    },
    {
      "province": "กรุงเทพมหานคร",
      "district": "หลักสี่",
      "subdistrict": "ตลาดบางเขน",
      "postcode": 10210,
      "latitude": 13.871,
      "longitude": 100.58
    },
    {
      "province": "กรุงเทพมหานคร",
      "district": "สายไหม",
      "subdistrict": "สายไหม",
      "postcode": 10220,
      "latitude": 13.921,
      "longitude": 100.654
    },
    {
      "province": "กรุงเทพมหานคร",
      "district": "สายไหม",
      "subdistrict": "ออเงิน",
      "postcode": 10220,
      "latitude": 13.896,
      "longitude": 100.672
    },
    {
      "province": "กรุงเทพมหานคร",
      "district": "สายไหม",
      "subdistrict": "คลองถนน",
      "postcode": 10220,
      "latitude": 13.898,
      "longitude": 100.63
    },
    {
      "province": "กรุงเทพมหานคร",
      "district": "คันนายาว",
      "subdistrict": "คันนายาว",
      "postcode": 10230,
      "latitude": 13.821,
      "longitude": 100.677
    },
    {
      "province": "กรุงเทพมหานคร",
      "district": "คันนายาว",
      "subdistrict": "รามอินทรา",
      "postcode": 10230,
      "latitude": null,
      "longitude": null
    },
    {
      "province": "กรุงเทพมหานคร",
      "district": "สะพานสูง",
      "subdistrict": "สะพานสูง",
      "postcode": 10240,
      "latitude": 13.761,
      "longitude": 100.688
    },
    {
      "province": "กรุงเทพมหานคร",
      "district": "วังทองหลาง",
      "subdistrict": "วังทองหลาง",
      "postcode": 10310,
      "latitude": 13.779,
      "longitude": 100.609
    },
    {
      "province": "กรุงเทพมหานคร",
      "district": "วังทองหลาง",
      "subdistrict": "สะพานสอง",
      "postcode": 10310,
      "latitude": null,
      "longitude": null
    },
    {
      "province": "กรุงเทพมหานคร",
      "district": "วังทองหลาง",
      "subdistrict": "คลองเจ้าคุณสิงห์",
      "postcode": 10310,
      "latitude": null,
      "longitude": null
    },
    {
      "province": "กรุงเทพมหานคร",
      "district": "วังทองหลาง",
      "subdistrict": "พลับพลา",
      "postcode": 10310,
      "latitude": null,
      "longitude": null
    },
    {
      "province": "กรุงเทพมหานคร",
      "district": "คลองสามวา",
      "subdistrict": "สามวาตะวันตก",
      "postcode": 10510,
      "latitude": 13.889,
      "longitude": 100.708
    },
    {
      "province": "กรุงเทพมหานคร",
      "district": "คลองสามวา",
      "subdistrict": "สามวาตะวันออก",
      "postcode": 10510,
      "latitude": 13.896,
      "longitude": 100.76
    },
    {
      "province": "กรุงเทพมหานคร",
      "district": "คลองสามวา",
      "subdistrict": "บางชัน",
      "postcode": 10510,
      "latitude": 13.839,
      "longitude": 100.7
    },
    {
      "province": "กรุงเทพมหานคร",
      "district": "คลองสามวา",
      "subdistrict": "ทรายกองดิน",
      "postcode": 10510,
      "latitude": 13.854,
      "longitude": 100.745
    },
    {
      "province": "กรุงเทพมหานคร",
      "district": "คลองสามวา",
      "subdistrict": "ทรายกองดินใต้",
      "postcode": 10510,
      "latitude": 13.861,
      "longitude": 100.786
    },
    {
      "province": "กรุงเทพมหานคร",
      "district": "บางนา",
      "subdistrict": "บางนา",
      "postcode": 10260,
      "latitude": 13.672,
      "longitude": 100.616
    },
    {
      "province": "กรุงเทพมหานคร",
      "district": "ทวีวัฒนา",
      "subdistrict": "ทวีวัฒนา",
      "postcode": 10170,
      "latitude": 13.758,
      "longitude": 100.348
    },
    {
      "province": "กรุงเทพมหานคร",
      "district": "ทวีวัฒนา",
      "subdistrict": "ศาลาธรรมสพน์",
      "postcode": 10170,
      "latitude": 13.783,
      "longitude": 100.39
    },
    {
      "province": "กรุงเทพมหานคร",
      "district": "ทุ่งครุ",
      "subdistrict": "บางมด",
      "postcode": 10140,
      "latitude": 13.651,
      "longitude": 100.51
    },
    {
      "province": "กรุงเทพมหานคร",
      "district": "ทุ่งครุ",
      "subdistrict": "ทุ่งครุ",
      "postcode": 10140,
      "latitude": 13.614,
      "longitude": 100.497
    },
    {
      "province": "กรุงเทพมหานคร",
      "district": "บางบอน",
      "subdistrict": "บางบอน",
      "postcode": 10150,
      "latitude": 13.646,
      "longitude": 100.37
    },
    {
      "province": "สมุทรปราการ",
      "district": "เมืองสมุทรปราการ",
      "subdistrict": "ปากน้ำ",
      "postcode": 10270,
      "latitude": null,
      "longitude": null
    },
    {
      "province": "สมุทรปราการ",
      "district": "เมืองสมุทรปราการ",
      "subdistrict": "สำโรงเหนือ",
      "postcode": 10270,
      "latitude": 13.649,
      "longitude": 100.617
    },
    {
      "province": "สมุทรปราการ",
      "district": "เมืองสมุทรปราการ",
      "subdistrict": "บางเมือง",
      "postcode": 10270,
      "latitude": 13.601,
      "longitude": 100.622
    },
    {
      "province": "สมุทรปราการ",
      "district": "เมืองสมุทรปราการ",
      "subdistrict": "ท้ายบ้าน",
      "postcode": 10280,
      "latitude": 13.556,
      "longitude": 100.599
    },
    {
      "province": "สมุทรปราการ",
      "district": "เมืองสมุทรปราการ",
      "subdistrict": "บางปูใหม่",
      "postcode": 10280,
      "latitude": 13.526,
      "longitude": 100.67
    },
    {
      "province": "สมุทรปราการ",
      "district": "เมืองสมุทรปราการ",
      "subdistrict": "แพรกษา",
      "postcode": 10280,
      "latitude": 13.564,
      "longitude": 100.653
    },
    {
      "province": "สมุทรปราการ",
      "district": "เมืองสมุทรปราการ",
      "subdistrict": "บางโปรง",
      "postcode": 10270,
      "latitude": 13.623,
      "longitude": 100.565
    },
    {
      "province": "สมุทรปราการ",
      "district": "เมืองสมุทรปราการ",
      "subdistrict": "บางปู",
      "postcode": 10280,
      "latitude": null,
      "longitude": null
    },
    {
      "province": "สมุทรปราการ",
      "district": "เมืองสมุทรปราการ",
      "subdistrict": "บางด้วน",
      "postcode": 10270,
      "latitude": 13.622,
      "longitude": 100.581
    },
    {
      "province": "สมุทรปราการ",
      "district": "เมืองสมุทรปราการ",
      "subdistrict": "บางเมืองใหม่",
      "postcode": 10270,
      "latitude": null,
      "longitude": null
    },
    {
      "province": "สมุทรปราการ",
      "district": "เมืองสมุทรปราการ",
      "subdistrict": "เทพารักษ์",
      "postcode": 10270,
      "latitude": 13.634,
      "longitude": 100.61
    },
    {
      "province": "สมุทรปราการ",
      "district": "เมืองสมุทรปราการ",
      "subdistrict": "ท้ายบ้านใหม่",
      "postcode": 10280,
      "latitude": 13.572,
      "longitude": 100.621
    },
    {
      "province": "สมุทรปราการ",
      "district": "เมืองสมุทรปราการ",
      "subdistrict": "แพรกษาใหม่",
      "postcode": 10280,
      "latitude": 13.559,
      "longitude": 100.691
    },
    {
      "province": "สมุทรปราการ",
      "district": "บางบ่อ",
      "subdistrict": "บางบ่อ",
      "postcode": 10560,
      "latitude": 13.611,
      "longitude": 100.862
    },
    {
      "province": "สมุทรปราการ",
      "district": "บางบ่อ",
      "subdistrict": "บ้านระกาศ",
      "postcode": 10560,
      "latitude": 13.639,
      "longitude": 100.904
    },
    {
      "province": "สมุทรปราการ",
      "district": "บางบ่อ",
      "subdistrict": "บางพลีน้อย",
      "postcode": 10560,
      "latitude": 13.574,
      "longitude": 100.9
    },
    {
      "province": "สมุทรปราการ",
      "district": "บางบ่อ",
      "subdistrict": "บางเพรียง",
      "postcode": 10560,
      "latitude": 13.545,
      "longitude": 100.805
    },
    {
      "province": "สมุทรปราการ",
      "district": "บางบ่อ",
      "subdistrict": "คลองด่าน",
      "postcode": 10550,
      "latitude": 13.511,
      "longitude": 100.835
    },
    {
      "province": "สมุทรปราการ",
      "district": "บางบ่อ",
      "subdistrict": "คลองสวน",
      "postcode": 10560,
      "latitude": 13.659,
      "longitude": 100.925
    },
    {
      "province": "สมุทรปราการ",
      "district": "บางบ่อ",
      "subdistrict": "เปร็ง",
      "postcode": 10560,
      "latitude": 13.672,
      "longitude": 100.881
    },
    {
      "province": "สมุทรปราการ",
      "district": "บางบ่อ",
      "subdistrict": "คลองนิยมยาตรา",
      "postcode": 10560,
      "latitude": 13.624,
      "longitude": 100.935
    },
    {
      "province": "สมุทรปราการ",
      "district": "บางพลี",
      "subdistrict": "บางพลีใหญ่",
      "postcode": 10540,
      "latitude": 13.618,
      "longitude": 100.694
    },
    {
      "province": "สมุทรปราการ",
      "district": "บางพลี",
      "subdistrict": "บางแก้ว",
      "postcode": 10540,
      "latitude": 13.642,
      "longitude": 100.662
    },
    {
      "province": "สมุทรปราการ",
      "district": "บางพลี",
      "subdistrict": "บางปลา",
      "postcode": 10540,
      "latitude": 13.561,
      "longitude": 100.739
    },
    {
      "province": "สมุทรปราการ",
      "district": "บางพลี",
      "subdistrict": "บางโฉลง",
      "postcode": 10540,
      "latitude": 13.623,
      "longitude": 100.755
    },
    {
      "province": "สมุทรปราการ",
      "district": "บางพลี",
      "subdistrict": "ราชาเทวะ",
      "postcode": 10540,
      "latitude": 13.681,
      "longitude": 100.733
    },
    {
      "province": "สมุทรปราการ",
      "district": "บางพลี",
      "subdistrict": "หนองปรือ",
      "postcode": 10540,
      "latitude": 13.678,
      "longitude": 100.75
    },
    {
      "province": "สมุทรปราการ",
      "district": "พระประแดง",
      "subdistrict": "ตลาด",
      "postcode": 10130,
      "latitude": 13.671,
      "longitude": 100.52
    },
    {
      "province": "สมุทรปราการ",
      "district": "พระประแดง",
      "subdistrict": "บางพึ่ง",
      "postcode": 10130,
      "latitude": null,
      "longitude": null
    },
    {
      "province": "สมุทรปราการ",
      "district": "พระประแดง",
      "subdistrict": "บางจาก",
      "postcode": 10130,
      "latitude": 13.616,
      "longitude": 100.536
    },
    {
      "province": "สมุทรปราการ",
      "district": "พระประแดง",
      "subdistrict": "บางครุ",
      "postcode": 10130,
      "latitude": 13.631,
      "longitude": 100.526
    },
    {
      "province": "สมุทรปราการ",
      "district": "พระประแดง",
      "subdistrict": "บางหญ้าแพรก",
      "postcode": 10130,
      "latitude": 13.645,
      "longitude": 100.546
    },
    {
      "province": "สมุทรปราการ",
      "district": "พระประแดง",
      "subdistrict": "บางหัวเสือ",
      "postcode": 10130,
      "latitude": 13.625,
      "longitude": 100.549
    },
    {
      "province": "สมุทรปราการ",
      "district": "พระประแดง",
      "subdistrict": "สำโรงใต้",
      "postcode": 10130,
      "latitude": null,
      "longitude": null
    },
    {
      "province": "สมุทรปราการ",
      "district": "พระประแดง",
      "subdistrict": "บางยอ",
      "postcode": 10130,
      "latitude": 13.679,
      "longitude": 100.558
    },
    {
      "province": "สมุทรปราการ",
      "district": "พระประแดง",
      "subdistrict": "บางกะเจ้า",
      "postcode": 10130,
      "latitude": 13.697,
      "longitude": 100.561
    },
    {
      "province": "สมุทรปราการ",
      "district": "พระประแดง",
      "subdistrict": "บางน้ำผึ้ง",
      "postcode": 10130,
      "latitude": 13.679,
      "longitude": 100.578
    },
    {
      "province": "สมุทรปราการ",
      "district": "พระประแดง",
      "subdistrict": "บางกระสอบ",
      "postcode": 10130,
      "latitude": 13.666,
      "longitude": 100.566
    },
    {
      "province": "สมุทรปราการ",
      "district": "พระประแดง",
      "subdistrict": "บางกอบัว",
      "postcode": 10130,
      "latitude": 13.693,
      "longitude": 100.577
    },
    {
      "province": "สมุทรปราการ",
      "district": "พระประแดง",
      "subdistrict": "ทรงคนอง",
      "postcode": 10130,
      "latitude": 13.665,
      "longitude": 100.545
    },
    {
      "province": "สมุทรปราการ",
      "district": "พระประแดง",
      "subdistrict": "สำโรง",
      "postcode": 10130,
      "latitude": 13.659,
      "longitude": 100.584
    },
    {
      "province": "สมุทรปราการ",
      "district": "พระประแดง",
      "subdistrict": "สำโรงกลาง",
      "postcode": 10130,
      "latitude": 13.653,
      "longitude": 100.564
    },
    {
      "province": "สมุทรปราการ",
      "district": "พระสมุทรเจดีย์",
      "subdistrict": "นาเกลือ",
      "postcode": 10290,
      "latitude": 13.53,
      "longitude": 100.494
    },
    {
      "province": "สมุทรปราการ",
      "district": "พระสมุทรเจดีย์",
      "subdistrict": "บ้านคลองสวน",
      "postcode": 10290,
      "latitude": 13.571,
      "longitude": 100.476
    },
    {
      "province": "สมุทรปราการ",
      "district": "พระสมุทรเจดีย์",
      "subdistrict": "แหลมฟ้าผ่า",
      "postcode": 10290,
      "latitude": 13.539,
      "longitude": 100.559
    },
    {
      "province": "สมุทรปราการ",
      "district": "พระสมุทรเจดีย์",
      "subdistrict": "ปากคลองบางปลากด",
      "postcode": 10290,
      "latitude": 13.606,
      "longitude": 100.567
    },
    {
      "province": "สมุทรปราการ",
      "district": "พระสมุทรเจดีย์",
      "subdistrict": "ในคลองบางปลากด",
      "postcode": 10290,
      "latitude": 13.588,
      "longitude": 100.541
    },
    {
      "province": "สมุทรปราการ",
      "district": "บางเสาธง",
      "subdistrict": "บางเสาธง",
      "postcode": 10540,
      "latitude": 13.6,
      "longitude": 100.815
    },
    {
      "province": "สมุทรปราการ",
      "district": "บางเสาธง",
      "subdistrict": "ศีรษะจรเข้น้อย",
      "postcode": 10540,
      "latitude": 13.689,
      "longitude": 100.799
    },
    {
      "province": "สมุทรปราการ",
      "district": "บางเสาธง",
      "subdistrict": "ศีรษะจรเข้ใหญ่",
      "postcode": 10540,
      "latitude": 13.641,
      "longitude": 100.803
    },
    {
      "province": "นนทบุรี",
      "district": "เมืองนนทบุรี",
      "subdistrict": "สวนใหญ่",
      "postcode": 11000,
      "latitude": 13.842,
      "longitude": 100.494
    },
    {
      "province": "นนทบุรี",
      "district": "เมืองนนทบุรี",
      "subdistrict": "ตลาดขวัญ",
      "postcode": 11000,
      "latitude": 13.85,
      "longitude": 100.509
    },
    {
      "province": "นนทบุรี",
      "district": "เมืองนนทบุรี",
      "subdistrict": "บางเขน",
      "postcode": 11000,
      "latitude": 13.835,
      "longitude": 100.516
    },
    {
      "province": "นนทบุรี",
      "district": "เมืองนนทบุรี",
      "subdistrict": "บางกระสอ",
      "postcode": 11000,
      "latitude": 13.869,
      "longitude": 100.491
    },
    {
      "province": "นนทบุรี",
      "district": "เมืองนนทบุรี",
      "subdistrict": "ท่าทราย",
      "postcode": 11000,
      "latitude": 13.884,
      "longitude": 100.501
    },
    {
      "province": "นนทบุรี",
      "district": "เมืองนนทบุรี",
      "subdistrict": "บางไผ่",
      "postcode": 11000,
      "latitude": 13.823,
      "longitude": 100.492
    },
    {
      "province": "นนทบุรี",
      "district": "เมืองนนทบุรี",
      "subdistrict": "บางศรีเมือง",
      "postcode": 11000,
      "latitude": 13.841,
      "longitude": 100.475
    },
    {
      "province": "นนทบุรี",
      "district": "เมืองนนทบุรี",
      "subdistrict": "บางกร่าง",
      "postcode": 11000,
      "latitude": 13.835,
      "longitude": 100.438
    },
    {
      "province": "นนทบุรี",
      "district": "เมืองนนทบุรี",
      "subdistrict": "ไทรม้า",
      "postcode": 11000,
      "latitude": 13.87,
      "longitude": 100.472
    },
    {
      "province": "นนทบุรี",
      "district": "เมืองนนทบุรี",
      "subdistrict": "บางรักน้อย",
      "postcode": 11000,
      "latitude": 13.859,
      "longitude": 100.464
    },
    {
      "province": "นนทบุรี",
      "district": "บางกรวย",
      "subdistrict": "วัดชลอ",
      "postcode": 11130,
      "latitude": 13.802,
      "longitude": 100.476
    },
    {
      "province": "นนทบุรี",
      "district": "บางกรวย",
      "subdistrict": "บางกรวย",
      "postcode": 11130,
      "latitude": 13.809,
      "longitude": 100.499
    },
    {
      "province": "นนทบุรี",
      "district": "บางกรวย",
      "subdistrict": "บางสีทอง",
      "postcode": 11130,
      "latitude": 13.818,
      "longitude": 100.479
    },
    {
      "province": "นนทบุรี",
      "district": "บางกรวย",
      "subdistrict": "บางขนุน",
      "postcode": 11130,
      "latitude": 13.811,
      "longitude": 100.453
    },
    {
      "province": "นนทบุรี",
      "district": "บางกรวย",
      "subdistrict": "บางขุนกอง",
      "postcode": 11130,
      "latitude": 13.821,
      "longitude": 100.444
    },
    {
      "province": "นนทบุรี",
      "district": "บางกรวย",
      "subdistrict": "บางคูเวียง",
      "postcode": 11130,
      "latitude": 13.822,
      "longitude": 100.417
    },
    {
      "province": "นนทบุรี",
      "district": "บางกรวย",
      "subdistrict": "มหาสวัสดิ์",
      "postcode": 11130,
      "latitude": 13.806,
      "longitude": 100.434
    },
    {
      "province": "นนทบุรี",
      "district": "บางกรวย",
      "subdistrict": "ปลายบาง",
      "postcode": 11130,
      "latitude": 13.814,
      "longitude": 100.402
    },
    {
      "province": "นนทบุรี",
      "district": "บางกรวย",
      "subdistrict": "ศาลากลาง",
      "postcode": 11130,
      "latitude": 13.81,
      "longitude": 100.358
    },
    {
      "province": "นนทบุรี",
      "district": "บางใหญ่",
      "subdistrict": "บางม่วง",
      "postcode": 11140,
      "latitude": 13.838,
      "longitude": 100.406
    },
    {
      "province": "นนทบุรี",
      "district": "บางใหญ่",
      "subdistrict": "บางแม่นาง",
      "postcode": 11140,
      "latitude": 13.868,
      "longitude": 100.381
    },
    {
      "province": "นนทบุรี",
      "district": "บางใหญ่",
      "subdistrict": "บางเลน",
      "postcode": 11140,
      "latitude": 13.854,
      "longitude": 100.434
    },
    {
      "province": "นนทบุรี",
      "district": "บางใหญ่",
      "subdistrict": "เสาธงหิน",
      "postcode": 11140,
      "latitude": 13.875,
      "longitude": 100.404
    },
    {
      "province": "นนทบุรี",
      "district": "บางใหญ่",
      "subdistrict": "บางใหญ่",
      "postcode": 11140,
      "latitude": 13.837,
      "longitude": 100.375
    },
    {
      "province": "นนทบุรี",
      "district": "บางใหญ่",
      "subdistrict": "บ้านใหม่",
      "postcode": 11140,
      "latitude": 13.861,
      "longitude": 100.333
    },
    {
      "province": "นนทบุรี",
      "district": "บางบัวทอง",
      "subdistrict": "โสนลอย",
      "postcode": 11110,
      "latitude": 13.914,
      "longitude": 100.422
    },
    {
      "province": "นนทบุรี",
      "district": "บางบัวทอง",
      "subdistrict": "บางบัวทอง",
      "postcode": 11110,
      "latitude": 13.944,
      "longitude": 100.39
    },
    {
      "province": "นนทบุรี",
      "district": "บางบัวทอง",
      "subdistrict": "บางรักใหญ่",
      "postcode": 11110,
      "latitude": 13.878,
      "longitude": 100.438
    },
    {
      "province": "นนทบุรี",
      "district": "บางบัวทอง",
      "subdistrict": "บางคูรัด",
      "postcode": 11110,
      "latitude": 13.907,
      "longitude": 100.351
    },
    {
      "province": "นนทบุรี",
      "district": "บางบัวทอง",
      "subdistrict": "ละหาร",
      "postcode": 11110,
      "latitude": 13.964,
      "longitude": 100.401
    },
    {
      "province": "นนทบุรี",
      "district": "บางบัวทอง",
      "subdistrict": "ลำโพ",
      "postcode": 11110,
      "latitude": 13.97,
      "longitude": 100.416
    },
    {
      "province": "นนทบุรี",
      "district": "บางบัวทอง",
      "subdistrict": "พิมลราช",
      "postcode": 11110,
      "latitude": 13.934,
      "longitude": 100.366
    },
    {
      "province": "นนทบุรี",
      "district": "บางบัวทอง",
      "subdistrict": "บางรักพัฒนา",
      "postcode": 11110,
      "latitude": 13.894,
      "longitude": 100.41
    },
    {
      "province": "นนทบุรี",
      "district": "ไทรน้อย",
      "subdistrict": "ไทรน้อย",
      "postcode": 11150,
      "latitude": 13.976,
      "longitude": 100.344
    },
    {
      "province": "นนทบุรี",
      "district": "ไทรน้อย",
      "subdistrict": "ราษฎร์นิยม",
      "postcode": 11150,
      "latitude": 14.088,
      "longitude": 100.329
    },
    {
      "province": "นนทบุรี",
      "district": "ไทรน้อย",
      "subdistrict": "หนองเพรางาย",
      "postcode": 11150,
      "latitude": 13.906,
      "longitude": 100.322
    },
    {
      "province": "นนทบุรี",
      "district": "ไทรน้อย",
      "subdistrict": "ไทรใหญ่",
      "postcode": 11150,
      "latitude": 14.085,
      "longitude": 100.292
    },
    {
      "province": "นนทบุรี",
      "district": "ไทรน้อย",
      "subdistrict": "ขุนศรี",
      "postcode": 11150,
      "latitude": 14.005,
      "longitude": 100.287
    },
    {
      "province": "นนทบุรี",
      "district": "ไทรน้อย",
      "subdistrict": "คลองขวาง",
      "postcode": 11150,
      "latitude": 14.004,
      "longitude": 100.306
    },
    {
      "province": "นนทบุรี",
      "district": "ไทรน้อย",
      "subdistrict": "ทวีวัฒนา",
      "postcode": 11150,
      "latitude": 13.942,
      "longitude": 100.312
    },
    {
      "province": "นนทบุรี",
      "district": "ปากเกร็ด",
      "subdistrict": "ปากเกร็ด",
      "postcode": 11120,
      "latitude": 13.912,
      "longitude": 100.506
    },
    {
      "province": "นนทบุรี",
      "district": "ปากเกร็ด",
      "subdistrict": "บางตลาด",
      "postcode": 11120,
      "latitude": 13.896,
      "longitude": 100.521
    },
    {
      "province": "นนทบุรี",
      "district": "ปากเกร็ด",
      "subdistrict": "บ้านใหม่",
      "postcode": 11120,
      "latitude": 13.93,
      "longitude": 100.546
    },
    {
      "province": "นนทบุรี",
      "district": "ปากเกร็ด",
      "subdistrict": "บางพูด",
      "postcode": 11120,
      "latitude": 13.927,
      "longitude": 100.516
    },
    {
      "province": "นนทบุรี",
      "district": "ปากเกร็ด",
      "subdistrict": "บางตะไนย์",
      "postcode": 11120,
      "latitude": 13.931,
      "longitude": 100.492
    },
    {
      "province": "นนทบุรี",
      "district": "ปากเกร็ด",
      "subdistrict": "คลองพระอุดม",
      "postcode": 11120,
      "latitude": 13.93,
      "longitude": 100.479
    },
    {
      "province": "นนทบุรี",
      "district": "ปากเกร็ด",
      "subdistrict": "ท่าอิฐ",
      "postcode": 11120,
      "latitude": 13.894,
      "longitude": 100.48
    },
    {
      "province": "นนทบุรี",
      "district": "ปากเกร็ด",
      "subdistrict": "เกาะเกร็ด",
      "postcode": 11120,
      "latitude": 13.91,
      "longitude": 100.472
    },
    {
      "province": "นนทบุรี",
      "district": "ปากเกร็ด",
      "subdistrict": "อ้อมเกร็ด",
      "postcode": 11120,
      "latitude": 13.909,
      "longitude": 100.453
    },
    {
      "province": "นนทบุรี",
      "district": "ปากเกร็ด",
      "subdistrict": "คลองข่อย",
      "postcode": 11120,
      "latitude": 13.959,
      "longitude": 100.45
    },
    {
      "province": "นนทบุรี",
      "district": "ปากเกร็ด",
      "subdistrict": "บางพลับ",
      "postcode": 11120,
      "latitude": 13.929,
      "longitude": 100.458
    },
    {
      "province": "นนทบุรี",
      "district": "ปากเกร็ด",
      "subdistrict": "คลองเกลือ",
      "postcode": 11120,
      "latitude": 13.902,
      "longitude": 100.55
    },
    {
      "province": "ปทุมธานี",
      "district": "เมืองปทุมธานี",
      "subdistrict": "บางปรอก",
      "postcode": 12000,
      "latitude": 14.012,
      "longitude": 100.528
    },
    {
      "province": "ปทุมธานี",
      "district": "เมืองปทุมธานี",
      "subdistrict": "บ้านใหม่",
      "postcode": 12000,
      "latitude": 13.963,
      "longitude": 100.553
    },
    {
      "province": "ปทุมธานี",
      "district": "เมืองปทุมธานี",
      "subdistrict": "บ้านกลาง",
      "postcode": 12000,
      "latitude": 14.001,
      "longitude": 100.558
    },
    {
      "province": "ปทุมธานี",
      "district": "เมืองปทุมธานี",
      "subdistrict": "บ้านฉาง",
      "postcode": 12000,
      "latitude": 14.029,
      "longitude": 100.507
    },
    {
      "province": "ปทุมธานี",
      "district": "เมืองปทุมธานี",
      "subdistrict": "บ้านกระแชง",
      "postcode": 12000,
      "latitude": 14.031,
      "longitude": 100.552
    },
    {
      "province": "ปทุมธานี",
      "district": "เมืองปทุมธานี",
      "subdistrict": "บางขะแยง",
      "postcode": 12000,
      "latitude": 13.967,
      "longitude": 100.523
    },
    {
      "province": "ปทุมธานี",
      "district": "เมืองปทุมธานี",
      "subdistrict": "บางคูวัด",
      "postcode": 12000,
      "latitude": 13.963,
      "longitude": 100.495
    },
    {
      "province": "ปทุมธานี",
      "district": "เมืองปทุมธานี",
      "subdistrict": "บางหลวง",
      "postcode": 12000,
      "latitude": 14.007,
      "longitude": 100.509
    },
    {
      "province": "ปทุมธานี",
      "district": "เมืองปทุมธานี",
      "subdistrict": "บางเดื่อ",
      "postcode": 12000,
      "latitude": 13.99,
      "longitude": 100.487
    },
    {
      "province": "ปทุมธานี",
      "district": "เมืองปทุมธานี",
      "subdistrict": "บางพูด",
      "postcode": 12000,
      "latitude": 14.035,
      "longitude": 100.572
    },
    {
      "province": "ปทุมธานี",
      "district": "เมืองปทุมธานี",
      "subdistrict": "บางพูน",
      "postcode": 12000,
      "latitude": 13.988,
      "longitude": 100.594
    },
    {
      "province": "ปทุมธานี",
      "district": "เมืองปทุมธานี",
      "subdistrict": "บางกะดี",
      "postcode": 12000,
      "latitude": 13.983,
      "longitude": 100.537
    },
    {
      "province": "ปทุมธานี",
      "district": "เมืองปทุมธานี",
      "subdistrict": "สวนพริกไทย",
      "postcode": 12000,
      "latitude": 14.018,
      "longitude": 100.568
    },
    {
      "province": "ปทุมธานี",
      "district": "เมืองปทุมธานี",
      "subdistrict": "หลักหก",
      "postcode": 12000,
      "latitude": 13.963,
      "longitude": 100.59
    },
    {
      "province": "ปทุมธานี",
      "district": "คลองหลวง",
      "subdistrict": "คลองหนึ่ง",
      "postcode": 12120,
      "latitude": 14.066,
      "longitude": 100.607
    },
    {
      "province": "ปทุมธานี",
      "district": "คลองหลวง",
      "subdistrict": "คลองสอง",
      "postcode": 12120,
      "latitude": 14.079,
      "longitude": 100.642
    },
    {
      "province": "ปทุมธานี",
      "district": "คลองหลวง",
      "subdistrict": "คลองสาม",
      "postcode": 12120,
      "latitude": 14.087,
      "longitude": 100.664
    },
    {
      "province": "ปทุมธานี",
      "district": "คลองหลวง",
      "subdistrict": "คลองสี่",
      "postcode": 12120,
      "latitude": 14.097,
      "longitude": 100.687
    },
    {
      "province": "ปทุมธานี",
      "district": "คลองหลวง",
      "subdistrict": "คลองห้า",
      "postcode": 12120,
      "latitude": 14.106,
      "longitude": 100.71
    },
    {
      "province": "ปทุมธานี",
      "district": "คลองหลวง",
      "subdistrict": "คลองหก",
      "postcode": 12120,
      "latitude": 14.117,
      "longitude": 100.733
    },
    {
      "province": "ปทุมธานี",
      "district": "คลองหลวง",
      "subdistrict": "คลองเจ็ด",
      "postcode": 12120,
      "latitude": 14.125,
      "longitude": 100.75
    },
    {
      "province": "ปทุมธานี",
      "district": "ธัญบุรี",
      "subdistrict": "ประชาธิปัตย์",
      "postcode": 12130,
      "latitude": 13.987,
      "longitude": 100.632
    },
    {
      "province": "ปทุมธานี",
      "district": "ธัญบุรี",
      "subdistrict": "บึงยี่โถ",
      "postcode": 12130,
      "latitude": 13.999,
      "longitude": 100.687
    },
    {
      "province": "ปทุมธานี",
      "district": "ธัญบุรี",
      "subdistrict": "รังสิต",
      "postcode": 12110,
      "latitude": 14.018,
      "longitude": 100.731
    },
    {
      "province": "ปทุมธานี",
      "district": "ธัญบุรี",
      "subdistrict": "ลำผักกูด",
      "postcode": 12110,
      "latitude": 14.036,
      "longitude": 100.779
    },
    {
      "province": "ปทุมธานี",
      "district": "ธัญบุรี",
      "subdistrict": "บึงสนั่น",
      "postcode": 12110,
      "latitude": 14.052,
      "longitude": 100.824
    },
    {
      "province": "ปทุมธานี",
      "district": "ธัญบุรี",
      "subdistrict": "บึงน้ำรักษ์",
      "postcode": 12110,
      "latitude": 14.071,
      "longitude": 100.88
    },
    {
      "province": "ปทุมธานี",
      "district": "หนองเสือ",
      "subdistrict": "บึงบา",
      "postcode": 12170,
      "latitude": 14.112,
      "longitude": 100.824
    },
    {
      "province": "ปทุมธานี",
      "district": "หนองเสือ",
      "subdistrict": "บึงบอน",
      "postcode": 12170,
      "latitude": 14.087,
      "longitude": 100.778
    },
    {
      "province": "ปทุมธานี",
      "district": "หนองเสือ",
      "subdistrict": "บึงกาสาม",
      "postcode": 12170,
      "latitude": 14.2,
      "longitude": 100.824
    },
    {
      "province": "ปทุมธานี",
      "district": "หนองเสือ",
      "subdistrict": "บึงชำอ้อ",
      "postcode": 12170,
      "latitude": 14.172,
      "longitude": 100.778
    },
    {
      "province": "ปทุมธานี",
      "district": "หนองเสือ",
      "subdistrict": "หนองสามวัง",
      "postcode": 12170,
      "latitude": 14.13,
      "longitude": 100.881
    },
    {
      "province": "ปทุมธานี",
      "district": "หนองเสือ",
      "subdistrict": "ศาลาครุ",
      "postcode": 12170,
      "latitude": 14.244,
      "longitude": 100.928
    },
    {
      "province": "ปทุมธานี",
      "district": "หนองเสือ",
      "subdistrict": "นพรัตน์",
      "postcode": 12170,
      "latitude": 14.223,
      "longitude": 100.866
    },
    {
      "province": "ปทุมธานี",
      "district": "ลาดหลุมแก้ว",
      "subdistrict": "ระแหง",
      "postcode": 12140,
      "latitude": 14.059,
      "longitude": 100.396
    },
    {
      "province": "ปทุมธานี",
      "district": "ลาดหลุมแก้ว",
      "subdistrict": "ลาดหลุมแก้ว",
      "postcode": 12140,
      "latitude": 14.006,
      "longitude": 100.41
    },
    {
      "province": "ปทุมธานี",
      "district": "ลาดหลุมแก้ว",
      "subdistrict": "คูบางหลวง",
      "postcode": 12140,
      "latitude": 14.047,
      "longitude": 100.467
    },
    {
      "province": "ปทุมธานี",
      "district": "ลาดหลุมแก้ว",
      "subdistrict": "คูขวาง",
      "postcode": 12140,
      "latitude": 14.068,
      "longitude": 100.437
    },
    {
      "province": "ปทุมธานี",
      "district": "ลาดหลุมแก้ว",
      "subdistrict": "คลองพระอุดม",
      "postcode": 12140,
      "latitude": 13.99,
      "longitude": 100.449
    },
    {
      "province": "ปทุมธานี",
      "district": "ลาดหลุมแก้ว",
      "subdistrict": "บ่อเงิน",
      "postcode": 12140,
      "latitude": 14.102,
      "longitude": 100.383
    },
    {
      "province": "ปทุมธานี",
      "district": "ลาดหลุมแก้ว",
      "subdistrict": "หน้าไม้",
      "postcode": 12140,
      "latitude": 14.034,
      "longitude": 100.359
    },
    {
      "province": "ปทุมธานี",
      "district": "ลำลูกกา",
      "subdistrict": "คูคต",
      "postcode": 12130,
      "latitude": 13.955,
      "longitude": 100.641
    },
    {
      "province": "ปทุมธานี",
      "district": "ลำลูกกา",
      "subdistrict": "ลาดสวาย",
      "postcode": 12150,
      "latitude": 13.958,
      "longitude": 100.685
    },
    {
      "province": "ปทุมธานี",
      "district": "ลำลูกกา",
      "subdistrict": "บึงคำพร้อย",
      "postcode": 12150,
      "latitude": 13.961,
      "longitude": 100.731
    },
    {
      "province": "ปทุมธานี",
      "district": "ลำลูกกา",
      "subdistrict": "ลำลูกกา",
      "postcode": 12150,
      "latitude": 13.972,
      "longitude": 100.774
    },
    {
      "province": "ปทุมธานี",
      "district": "ลำลูกกา",
      "subdistrict": "บึงทองหลาง",
      "postcode": 12150,
      "latitude": 13.984,
      "longitude": 100.82
    },
    {
      "province": "ปทุมธานี",
      "district": "ลำลูกกา",
      "subdistrict": "ลำไทร",
      "postcode": 12150,
      "latitude": 13.973,
      "longitude": 100.861
    },
    {
      "province": "ปทุมธานี",
      "district": "ลำลูกกา",
      "subdistrict": "บึงคอไห",
      "postcode": 12150,
      "latitude": 14.029,
      "longitude": 100.862
    },
    {
      "province": "ปทุมธานี",
      "district": "ลำลูกกา",
      "subdistrict": "พืชอุดม",
      "postcode": 12150,
      "latitude": 13.975,
      "longitude": 100.896
    },
    {
      "province": "ปทุมธานี",
      "district": "สามโคก",
      "subdistrict": "บางเตย",
      "postcode": 12160,
      "latitude": 14.062,
      "longitude": 100.504
    },
    {
      "province": "ปทุมธานี",
      "district": "สามโคก",
      "subdistrict": "คลองควาย",
      "postcode": 12160,
      "latitude": 14.097,
      "longitude": 100.478
    },
    {
      "province": "ปทุมธานี",
      "district": "สามโคก",
      "subdistrict": "สามโคก",
      "postcode": 12160,
      "latitude": 14.052,
      "longitude": 100.529
    },
    {
      "province": "ปทุมธานี",
      "district": "สามโคก",
      "subdistrict": "กระแชง",
      "postcode": 12160,
      "latitude": 14.043,
      "longitude": 100.544
    },
    {
      "province": "ปทุมธานี",
      "district": "สามโคก",
      "subdistrict": "บางโพธิ์เหนือ",
      "postcode": 12160,
      "latitude": 14.042,
      "longitude": 100.515
    },
    {
      "province": "ปทุมธานี",
      "district": "สามโคก",
      "subdistrict": "เชียงรากใหญ่",
      "postcode": 12160,
      "latitude": 14.057,
      "longitude": 100.574
    },
    {
      "province": "ปทุมธานี",
      "district": "สามโคก",
      "subdistrict": "บ้านปทุม",
      "postcode": 12160,
      "latitude": 14.067,
      "longitude": 100.546
    },
    {
      "province": "ปทุมธานี",
      "district": "สามโคก",
      "subdistrict": "บ้านงิ้ว",
      "postcode": 12160,
      "latitude": 14.084,
      "longitude": 100.539
    },
    {
      "province": "ปทุมธานี",
      "district": "สามโคก",
      "subdistrict": "เชียงรากน้อย",
      "postcode": 12160,
      "latitude": 14.105,
      "longitude": 100.567
    },
    {
      "province": "ปทุมธานี",
      "district": "สามโคก",
      "subdistrict": "บางกระบือ",
      "postcode": 12160,
      "latitude": 14.103,
      "longitude": 100.538
    },
    {
      "province": "ปทุมธานี",
      "district": "สามโคก",
      "subdistrict": "ท้ายเกาะ",
      "postcode": 12160,
      "latitude": 14.105,
      "longitude": 100.496
    },
    {
      "province": "พระนครศรีอยุธยา",
      "district": "พระนครศรีอยุธยา",
      "subdistrict": "ประตูชัย",
      "postcode": 13000,
      "latitude": 14.349,
      "longitude": 100.551
    },
    {
      "province": "พระนครศรีอยุธยา",
      "district": "พระนครศรีอยุธยา",
      "subdistrict": "กะมัง",
      "postcode": 13000,
      "latitude": 14.341,
      "longitude": 100.581
    },
    {
      "province": "พระนครศรีอยุธยา",
      "district": "พระนครศรีอยุธยา",
      "subdistrict": "หอรัตนไชย",
      "postcode": 13000,
      "latitude": 14.354,
      "longitude": 100.578
    },
    {
      "province": "พระนครศรีอยุธยา",
      "district": "พระนครศรีอยุธยา",
      "subdistrict": "หัวรอ",
      "postcode": 13000,
      "latitude": 14.368,
      "longitude": 100.578
    },
    {
      "province": "พระนครศรีอยุธยา",
      "district": "พระนครศรีอยุธยา",
      "subdistrict": "ท่าวาสุกรี",
      "postcode": 13000,
      "latitude": 14.361,
      "longitude": 100.552
    },
    {
      "province": "พระนครศรีอยุธยา",
      "district": "พระนครศรีอยุธยา",
      "subdistrict": "ไผ่ลิง",
      "postcode": 13000,
      "latitude": 14.356,
      "longitude": 100.589
    },
    {
      "province": "พระนครศรีอยุธยา",
      "district": "พระนครศรีอยุธยา",
      "subdistrict": "ปากกราน",
      "postcode": 13000,
      "latitude": 14.31,
      "longitude": 100.532
    },
    {
      "province": "พระนครศรีอยุธยา",
      "district": "พระนครศรีอยุธยา",
      "subdistrict": "ภูเขาทอง",
      "postcode": 13000,
      "latitude": 14.365,
      "longitude": 100.542
    },
    {
      "province": "พระนครศรีอยุธยา",
      "district": "พระนครศรีอยุธยา",
      "subdistrict": "สำเภาล่ม",
      "postcode": 13000,
      "latitude": 14.34,
      "longitude": 100.57
    },
    {
      "province": "พระนครศรีอยุธยา",
      "district": "พระนครศรีอยุธยา",
      "subdistrict": "สวนพริก",
      "postcode": 13000,
      "latitude": 14.391,
      "longitude": 100.558
    },
    {
      "province": "พระนครศรีอยุธยา",
      "district": "พระนครศรีอยุธยา",
      "subdistrict": "คลองตะเคียน",
      "postcode": 13000,
      "latitude": 14.331,
      "longitude": 100.554
    },
    {
      "province": "พระนครศรีอยุธยา",
      "district": "พระนครศรีอยุธยา",
      "subdistrict": "วัดตูม",
      "postcode": 13000,
      "latitude": 14.39,
      "longitude": 100.539
    },
    {
      "province": "พระนครศรีอยุธยา",
      "district": "พระนครศรีอยุธยา",
      "subdistrict": "หันตรา",
      "postcode": 13000,
      "latitude": 14.371,
      "longitude": 100.6
    },
    {
      "province": "พระนครศรีอยุธยา",
      "district": "พระนครศรีอยุธยา",
      "subdistrict": "ลุมพลี",
      "postcode": 13000,
      "latitude": 14.376,
      "longitude": 100.548
    },
    {
      "province": "พระนครศรีอยุธยา",
      "district": "พระนครศรีอยุธยา",
      "subdistrict": "บ้านใหม่",
      "postcode": 13000,
      "latitude": 14.39,
      "longitude": 100.521
    },
    {
      "province": "พระนครศรีอยุธยา",
      "district": "พระนครศรีอยุธยา",
      "subdistrict": "บ้านเกาะ",
      "postcode": 13000,
      "latitude": 14.389,
      "longitude": 100.582
    },
    {
      "province": "พระนครศรีอยุธยา",
      "district": "พระนครศรีอยุธยา",
      "subdistrict": "คลองสวนพลู",
      "postcode": 13000,
      "latitude": 14.334,
      "longitude": 100.595
    },
    {
      "province": "พระนครศรีอยุธยา",
      "district": "พระนครศรีอยุธยา",
      "subdistrict": "คลองสระบัว",
      "postcode": 13000,
      "latitude": 14.371,
      "longitude": 100.563
    },
    {
      "province": "พระนครศรีอยุธยา",
      "district": "พระนครศรีอยุธยา",
      "subdistrict": "เกาะเรียน",
      "postcode": 13000,
      "latitude": 14.318,
      "longitude": 100.579
    },
    {
      "province": "พระนครศรีอยุธยา",
      "district": "พระนครศรีอยุธยา",
      "subdistrict": "บ้านป้อม",
      "postcode": 13000,
      "latitude": 14.347,
      "longitude": 100.529
    },
    {
      "province": "พระนครศรีอยุธยา",
      "district": "พระนครศรีอยุธยา",
      "subdistrict": "บ้านรุน",
      "postcode": 13000,
      "latitude": null,
      "longitude": null
    },
    {
      "province": "พระนครศรีอยุธยา",
      "district": "ท่าเรือ",
      "subdistrict": "ท่าเรือ",
      "postcode": 13130,
      "latitude": 14.566,
      "longitude": 100.719
    },
    {
      "province": "พระนครศรีอยุธยา",
      "district": "ท่าเรือ",
      "subdistrict": "จำปา",
      "postcode": 13130,
      "latitude": 14.55,
      "longitude": 100.741
    },
    {
      "province": "พระนครศรีอยุธยา",
      "district": "ท่าเรือ",
      "subdistrict": "ท่าหลวง",
      "postcode": 13130,
      "latitude": 14.548,
      "longitude": 100.764
    },
    {
      "province": "พระนครศรีอยุธยา",
      "district": "ท่าเรือ",
      "subdistrict": "บ้านร่อม",
      "postcode": 13130,
      "latitude": 14.567,
      "longitude": 100.698
    },
    {
      "province": "พระนครศรีอยุธยา",
      "district": "ท่าเรือ",
      "subdistrict": "ศาลาลอย",
      "postcode": 13130,
      "latitude": 14.532,
      "longitude": 100.7
    },
    {
      "province": "พระนครศรีอยุธยา",
      "district": "ท่าเรือ",
      "subdistrict": "วังแดง",
      "postcode": 13130,
      "latitude": 14.541,
      "longitude": 100.67
    },
    {
      "province": "พระนครศรีอยุธยา",
      "district": "ท่าเรือ",
      "subdistrict": "โพธิ์เอน",
      "postcode": 13130,
      "latitude": 14.519,
      "longitude": 100.676
    },
    {
      "province": "พระนครศรีอยุธยา",
      "district": "ท่าเรือ",
      "subdistrict": "ปากท่า",
      "postcode": 13130,
      "latitude": 14.504,
      "longitude": 100.692
    },
    {
      "province": "พระนครศรีอยุธยา",
      "district": "ท่าเรือ",
      "subdistrict": "หนองขนาก",
      "postcode": 13130,
      "latitude": 14.512,
      "longitude": 100.732
    },
    {
      "province": "พระนครศรีอยุธยา",
      "district": "ท่าเรือ",
      "subdistrict": "ท่าเจ้าสนุก",
      "postcode": 13130,
      "latitude": 14.543,
      "longitude": 100.717
    },
    {
      "province": "พระนครศรีอยุธยา",
      "district": "นครหลวง",
      "subdistrict": "นครหลวง",
      "postcode": 13260,
      "latitude": 14.469,
      "longitude": 100.622
    },
    {
      "province": "พระนครศรีอยุธยา",
      "district": "นครหลวง",
      "subdistrict": "ท่าช้าง",
      "postcode": 13260,
      "latitude": 14.511,
      "longitude": 100.652
    },
    {
      "province": "พระนครศรีอยุธยา",
      "district": "นครหลวง",
      "subdistrict": "บ่อโพง",
      "postcode": 13260,
      "latitude": 14.406,
      "longitude": 100.603
    },
    {
      "province": "พระนครศรีอยุธยา",
      "district": "นครหลวง",
      "subdistrict": "บ้านชุ้ง",
      "postcode": 13260,
      "latitude": 14.458,
      "longitude": 100.655
    },
    {
      "province": "พระนครศรีอยุธยา",
      "district": "นครหลวง",
      "subdistrict": "ปากจั่น",
      "postcode": 13260,
      "latitude": 14.44,
      "longitude": 100.62
    },
    {
      "province": "พระนครศรีอยุธยา",
      "district": "นครหลวง",
      "subdistrict": "บางระกำ",
      "postcode": 13260,
      "latitude": 14.466,
      "longitude": 100.589
    },
    {
      "province": "พระนครศรีอยุธยา",
      "district": "นครหลวง",
      "subdistrict": "บางพระครู",
      "postcode": 13260,
      "latitude": 14.483,
      "longitude": 100.613
    },
    {
      "province": "พระนครศรีอยุธยา",
      "district": "นครหลวง",
      "subdistrict": "แม่ลา",
      "postcode": 13260,
      "latitude": 14.503,
      "longitude": 100.619
    },
    {
      "province": "พระนครศรีอยุธยา",
      "district": "นครหลวง",
      "subdistrict": "หนองปลิง",
      "postcode": 13260,
      "latitude": 14.423,
      "longitude": 100.64
    },
    {
      "province": "พระนครศรีอยุธยา",
      "district": "นครหลวง",
      "subdistrict": "คลองสะแก",
      "postcode": 13260,
      "latitude": 14.424,
      "longitude": 100.604
    },
    {
      "province": "พระนครศรีอยุธยา",
      "district": "นครหลวง",
      "subdistrict": "สามไถ",
      "postcode": 13260,
      "latitude": 14.489,
      "longitude": 100.675
    },
    {
      "province": "พระนครศรีอยุธยา",
      "district": "นครหลวง",
      "subdistrict": "พระนอน",
      "postcode": 13260,
      "latitude": 14.485,
      "longitude": 100.65
    },
    {
      "province": "พระนครศรีอยุธยา",
      "district": "บางไทร",
      "subdistrict": "บางไทร",
      "postcode": 13190,
      "latitude": 14.191,
      "longitude": 100.48
    },
    {
      "province": "พระนครศรีอยุธยา",
      "district": "บางไทร",
      "subdistrict": "บางพลี",
      "postcode": 13190,
      "latitude": 14.212,
      "longitude": 100.465
    },
    {
      "province": "พระนครศรีอยุธยา",
      "district": "บางไทร",
      "subdistrict": "สนามชัย",
      "postcode": 13190,
      "latitude": 14.213,
      "longitude": 100.522
    },
    {
      "province": "พระนครศรีอยุธยา",
      "district": "บางไทร",
      "subdistrict": "บ้านแป้ง",
      "postcode": 13190,
      "latitude": 14.232,
      "longitude": 100.507
    },
    {
      "province": "พระนครศรีอยุธยา",
      "district": "บางไทร",
      "subdistrict": "หน้าไม้",
      "postcode": 13190,
      "latitude": 14.315,
      "longitude": 100.462
    },
    {
      "province": "พระนครศรีอยุธยา",
      "district": "บางไทร",
      "subdistrict": "บางยี่โท",
      "postcode": 13190,
      "latitude": 14.299,
      "longitude": 100.445
    },
    {
      "province": "พระนครศรีอยุธยา",
      "district": "บางไทร",
      "subdistrict": "แคออก",
      "postcode": 13190,
      "latitude": 14.305,
      "longitude": 100.472
    },
    {
      "province": "พระนครศรีอยุธยา",
      "district": "บางไทร",
      "subdistrict": "แคตก",
      "postcode": 13190,
      "latitude": 14.287,
      "longitude": 100.48
    },
    {
      "province": "พระนครศรีอยุธยา",
      "district": "บางไทร",
      "subdistrict": "ช่างเหล็ก",
      "postcode": 13190,
      "latitude": 14.278,
      "longitude": 100.453
    },
    {
      "province": "พระนครศรีอยุธยา",
      "district": "บางไทร",
      "subdistrict": "กระแชง",
      "postcode": 13190,
      "latitude": 14.279,
      "longitude": 100.505
    },
    {
      "province": "พระนครศรีอยุธยา",
      "district": "บางไทร",
      "subdistrict": "บ้านกลึง",
      "postcode": 13190,
      "latitude": null,
      "longitude": null
    },
    {
      "province": "พระนครศรีอยุธยา",
      "district": "บางไทร",
      "subdistrict": "ช้างน้อย",
      "postcode": 13190,
      "latitude": 14.252,
      "longitude": 100.505
    },
    {
      "province": "พระนครศรีอยุธยา",
      "district": "บางไทร",
      "subdistrict": "ห่อหมก",
      "postcode": 13190,
      "latitude": 14.259,
      "longitude": 100.474
    },
    {
      "province": "พระนครศรีอยุธยา",
      "district": "บางไทร",
      "subdistrict": "ไผ่พระ",
      "postcode": 13190,
      "latitude": 14.222,
      "longitude": 100.432
    },
    {
      "province": "พระนครศรีอยุธยา",
      "district": "บางไทร",
      "subdistrict": "กกแก้วบูรพา",
      "postcode": 13190,
      "latitude": 14.188,
      "longitude": 100.435
    },
    {
      "province": "พระนครศรีอยุธยา",
      "district": "บางไทร",
      "subdistrict": "ไม้ตรา",
      "postcode": 13190,
      "latitude": 14.164,
      "longitude": 100.473
    },
    {
      "province": "พระนครศรีอยุธยา",
      "district": "บางไทร",
      "subdistrict": "บ้านม้า",
      "postcode": 13190,
      "latitude": 14.141,
      "longitude": 100.49
    },
    {
      "province": "พระนครศรีอยุธยา",
      "district": "บางไทร",
      "subdistrict": "บ้านเกาะ",
      "postcode": 13190,
      "latitude": 14.236,
      "longitude": 100.46
    },
    {
      "province": "พระนครศรีอยุธยา",
      "district": "บางไทร",
      "subdistrict": "ราชคราม",
      "postcode": 13290,
      "latitude": 14.186,
      "longitude": 100.519
    },
    {
      "province": "พระนครศรีอยุธยา",
      "district": "บางไทร",
      "subdistrict": "ช้างใหญ่",
      "postcode": 13290,
      "latitude": 14.161,
      "longitude": 100.522
    },
    {
      "province": "พระนครศรีอยุธยา",
      "district": "บางไทร",
      "subdistrict": "โพแตง",
      "postcode": 13290,
      "latitude": null,
      "longitude": null
    },
    {
      "province": "พระนครศรีอยุธยา",
      "district": "บางไทร",
      "subdistrict": "เชียงรากน้อย",
      "postcode": 13290,
      "latitude": 14.134,
      "longitude": 100.561
    },
    {
      "province": "พระนครศรีอยุธยา",
      "district": "บางไทร",
      "subdistrict": "โคกช้าง",
      "postcode": 13190,
      "latitude": 14.123,
      "longitude": 100.492
    },
    {
      "province": "พระนครศรีอยุธยา",
      "district": "บางบาล",
      "subdistrict": "บางบาล",
      "postcode": 13250,
      "latitude": 14.41,
      "longitude": 100.464
    },
    {
      "province": "พระนครศรีอยุธยา",
      "district": "บางบาล",
      "subdistrict": "วัดยม",
      "postcode": 13250,
      "latitude": 14.39,
      "longitude": 100.497
    },
    {
      "province": "พระนครศรีอยุธยา",
      "district": "บางบาล",
      "subdistrict": "ไทรน้อย",
      "postcode": 13250,
      "latitude": 14.407,
      "longitude": 100.486
    },
    {
      "province": "พระนครศรีอยุธยา",
      "district": "บางบาล",
      "subdistrict": "สะพานไทย",
      "postcode": 13250,
      "latitude": 14.363,
      "longitude": 100.486
    },
    {
      "province": "พระนครศรีอยุธยา",
      "district": "บางบาล",
      "subdistrict": "มหาพราหมณ์",
      "postcode": 13250,
      "latitude": 14.364,
      "longitude": 100.505
    },
    {
      "province": "พระนครศรีอยุธยา",
      "district": "บางบาล",
      "subdistrict": "กบเจา",
      "postcode": 13250,
      "latitude": 14.347,
      "longitude": 100.485
    },
    {
      "province": "พระนครศรีอยุธยา",
      "district": "บางบาล",
      "subdistrict": "บ้านคลัง",
      "postcode": 13250,
      "latitude": 14.347,
      "longitude": 100.457
    },
    {
      "province": "พระนครศรีอยุธยา",
      "district": "บางบาล",
      "subdistrict": "พระขาว",
      "postcode": 13250,
      "latitude": 14.328,
      "longitude": 100.482
    },
    {
      "province": "พระนครศรีอยุธยา",
      "district": "บางบาล",
      "subdistrict": "น้ำเต้า",
      "postcode": 13250,
      "latitude": 14.339,
      "longitude": 100.438
    },
    {
      "province": "พระนครศรีอยุธยา",
      "district": "บางบาล",
      "subdistrict": "ทางช้าง",
      "postcode": 13250,
      "latitude": 14.375,
      "longitude": 100.432
    },
    {
      "province": "พระนครศรีอยุธยา",
      "district": "บางบาล",
      "subdistrict": "วัดตะกู",
      "postcode": 13250,
      "latitude": 14.388,
      "longitude": 100.424
    },
    {
      "province": "พระนครศรีอยุธยา",
      "district": "บางบาล",
      "subdistrict": "บางหลวง",
      "postcode": 13250,
      "latitude": 14.403,
      "longitude": 100.433
    },
    {
      "province": "พระนครศรีอยุธยา",
      "district": "บางบาล",
      "subdistrict": "บางหลวงโดด",
      "postcode": 13250,
      "latitude": 14.419,
      "longitude": 100.43
    },
    {
      "province": "พระนครศรีอยุธยา",
      "district": "บางบาล",
      "subdistrict": "บางหัก",
      "postcode": 13250,
      "latitude": 14.436,
      "longitude": 100.439
    },
    {
      "province": "พระนครศรีอยุธยา",
      "district": "บางบาล",
      "subdistrict": "บางชะนี",
      "postcode": 13250,
      "latitude": 14.429,
      "longitude": 100.461
    },
    {
      "province": "พระนครศรีอยุธยา",
      "district": "บางบาล",
      "subdistrict": "บ้านกุ่ม",
      "postcode": 13250,
      "latitude": 14.436,
      "longitude": 100.492
    },
    {
      "province": "พระนครศรีอยุธยา",
      "district": "บางปะอิน",
      "subdistrict": "บ้านเลน",
      "postcode": 13160,
      "latitude": 14.241,
      "longitude": 100.598
    },
    {
      "province": "พระนครศรีอยุธยา",
      "district": "บางปะอิน",
      "subdistrict": "เชียงรากน้อย",
      "postcode": 13180,
      "latitude": 14.16,
      "longitude": 100.594
    },
    {
      "province": "พระนครศรีอยุธยา",
      "district": "บางปะอิน",
      "subdistrict": "บ้านโพ",
      "postcode": 13160,
      "latitude": 14.272,
      "longitude": 100.588
    },
    {
      "province": "พระนครศรีอยุธยา",
      "district": "บางปะอิน",
      "subdistrict": "บ้านกรด",
      "postcode": 13160,
      "latitude": 14.307,
      "longitude": 100.604
    },
    {
      "province": "พระนครศรีอยุธยา",
      "district": "บางปะอิน",
      "subdistrict": "บางกระสั้น",
      "postcode": 13160,
      "latitude": 14.189,
      "longitude": 100.565
    },
    {
      "province": "พระนครศรีอยุธยา",
      "district": "บางปะอิน",
      "subdistrict": "คลองจิก",
      "postcode": 13160,
      "latitude": 14.214,
      "longitude": 100.597
    },
    {
      "province": "พระนครศรีอยุธยา",
      "district": "บางปะอิน",
      "subdistrict": "บ้านหว้า",
      "postcode": 13160,
      "latitude": 14.258,
      "longitude": 100.616
    },
    {
      "province": "พระนครศรีอยุธยา",
      "district": "บางปะอิน",
      "subdistrict": "วัดยม",
      "postcode": 13160,
      "latitude": 14.26,
      "longitude": 100.568
    },
    {
      "province": "พระนครศรีอยุธยา",
      "district": "บางปะอิน",
      "subdistrict": "บางประแดง",
      "postcode": 13160,
      "latitude": 14.288,
      "longitude": 100.544
    },
    {
      "province": "พระนครศรีอยุธยา",
      "district": "บางปะอิน",
      "subdistrict": "สามเรือน",
      "postcode": 13160,
      "latitude": 14.292,
      "longitude": 100.647
    },
    {
      "province": "พระนครศรีอยุธยา",
      "district": "บางปะอิน",
      "subdistrict": "เกาะเกิด",
      "postcode": 13160,
      "latitude": 14.206,
      "longitude": 100.539
    },
    {
      "province": "พระนครศรีอยุธยา",
      "district": "บางปะอิน",
      "subdistrict": "บ้านพลับ",
      "postcode": 13160,
      "latitude": 14.223,
      "longitude": 100.552
    },
    {
      "province": "พระนครศรีอยุธยา",
      "district": "บางปะอิน",
      "subdistrict": "บ้านแป้ง",
      "postcode": 13160,
      "latitude": 14.239,
      "longitude": 100.557
    },
    {
      "province": "พระนครศรีอยุธยา",
      "district": "บางปะอิน",
      "subdistrict": "คุ้งลาน",
      "postcode": 13160,
      "latitude": 14.295,
      "longitude": 100.621
    },
    {
      "province": "พระนครศรีอยุธยา",
      "district": "บางปะอิน",
      "subdistrict": "ตลิ่งชัน",
      "postcode": 13160,
      "latitude": 14.25,
      "longitude": 100.642
    },
    {
      "province": "พระนครศรีอยุธยา",
      "district": "บางปะอิน",
      "subdistrict": "บ้านสร้าง",
      "postcode": 13170,
      "latitude": 14.289,
      "longitude": 100.668
    },
    {
      "province": "พระนครศรีอยุธยา",
      "district": "บางปะอิน",
      "subdistrict": "ตลาดเกรียบ",
      "postcode": 13160,
      "latitude": null,
      "longitude": null
    },
    {
      "province": "พระนครศรีอยุธยา",
      "district": "บางปะอิน",
      "subdistrict": "ขนอนหลวง",
      "postcode": 13160,
      "latitude": 14.266,
      "longitude": 100.542
    },
    {
      "province": "พระนครศรีอยุธยา",
      "district": "บางปะหัน",
      "subdistrict": "บางปะหัน",
      "postcode": 13220,
      "latitude": 14.458,
      "longitude": 100.558
    },
    {
      "province": "พระนครศรีอยุธยา",
      "district": "บางปะหัน",
      "subdistrict": "ขยาย",
      "postcode": 13220,
      "latitude": 14.414,
      "longitude": 100.564
    },
    {
      "province": "พระนครศรีอยุธยา",
      "district": "บางปะหัน",
      "subdistrict": "บางเดื่อ",
      "postcode": 13220,
      "latitude": 14.436,
      "longitude": 100.576
    },
    {
      "province": "พระนครศรีอยุธยา",
      "district": "บางปะหัน",
      "subdistrict": "เสาธง",
      "postcode": 13220,
      "latitude": 14.496,
      "longitude": 100.549
    },
    {
      "province": "พระนครศรีอยุธยา",
      "district": "บางปะหัน",
      "subdistrict": "ทางกลาง",
      "postcode": 13220,
      "latitude": 14.513,
      "longitude": 100.544
    },
    {
      "province": "พระนครศรีอยุธยา",
      "district": "บางปะหัน",
      "subdistrict": "บางเพลิง",
      "postcode": 13220,
      "latitude": 14.5,
      "longitude": 100.577
    },
    {
      "province": "พระนครศรีอยุธยา",
      "district": "บางปะหัน",
      "subdistrict": "หันสัง",
      "postcode": 13220,
      "latitude": 14.512,
      "longitude": 100.517
    },
    {
      "province": "พระนครศรีอยุธยา",
      "district": "บางปะหัน",
      "subdistrict": "บางนางร้า",
      "postcode": 13220,
      "latitude": 14.474,
      "longitude": 100.531
    },
    {
      "province": "พระนครศรีอยุธยา",
      "district": "บางปะหัน",
      "subdistrict": "ตานิม",
      "postcode": 13220,
      "latitude": 14.491,
      "longitude": 100.532
    },
    {
      "province": "พระนครศรีอยุธยา",
      "district": "บางปะหัน",
      "subdistrict": "ทับน้ำ",
      "postcode": 13220,
      "latitude": 14.464,
      "longitude": 100.508
    },
    {
      "province": "พระนครศรีอยุธยา",
      "district": "บางปะหัน",
      "subdistrict": "บ้านม้า",
      "postcode": 13220,
      "latitude": 14.492,
      "longitude": 100.51
    },
    {
      "province": "พระนครศรีอยุธยา",
      "district": "บางปะหัน",
      "subdistrict": "ขวัญเมือง",
      "postcode": 13220,
      "latitude": 14.444,
      "longitude": 100.536
    },
    {
      "province": "พระนครศรีอยุธยา",
      "district": "บางปะหัน",
      "subdistrict": "บ้านลี่",
      "postcode": 13220,
      "latitude": 14.449,
      "longitude": 100.521
    },
    {
      "province": "พระนครศรีอยุธยา",
      "district": "บางปะหัน",
      "subdistrict": "โพธิ์สามต้น",
      "postcode": 13220,
      "latitude": 14.421,
      "longitude": 100.547
    },
    {
      "province": "พระนครศรีอยุธยา",
      "district": "บางปะหัน",
      "subdistrict": "พุทเลา",
      "postcode": 13220,
      "latitude": 14.419,
      "longitude": 100.525
    },
    {
      "province": "พระนครศรีอยุธยา",
      "district": "บางปะหัน",
      "subdistrict": "ตาลเอน",
      "postcode": 13220,
      "latitude": 14.524,
      "longitude": 100.563
    },
    {
      "province": "พระนครศรีอยุธยา",
      "district": "บางปะหัน",
      "subdistrict": "บ้านขล้อ",
      "postcode": 13220,
      "latitude": 14.532,
      "longitude": 100.586
    },
    {
      "province": "พระนครศรีอยุธยา",
      "district": "ผักไห่",
      "subdistrict": "ผักไห่",
      "postcode": 13120,
      "latitude": 14.462,
      "longitude": 100.379
    },
    {
      "province": "พระนครศรีอยุธยา",
      "district": "ผักไห่",
      "subdistrict": "อมฤต",
      "postcode": 13120,
      "latitude": 14.472,
      "longitude": 100.361
    },
    {
      "province": "พระนครศรีอยุธยา",
      "district": "ผักไห่",
      "subdistrict": "บ้านแค",
      "postcode": 13120,
      "latitude": 14.495,
      "longitude": 100.405
    },
    {
      "province": "พระนครศรีอยุธยา",
      "district": "ผักไห่",
      "subdistrict": "ลาดน้ำเค็ม",
      "postcode": 13120,
      "latitude": 14.482,
      "longitude": 100.393
    },
    {
      "province": "พระนครศรีอยุธยา",
      "district": "ผักไห่",
      "subdistrict": "ตาลาน",
      "postcode": 13120,
      "latitude": 14.446,
      "longitude": 100.387
    },
    {
      "province": "พระนครศรีอยุธยา",
      "district": "ผักไห่",
      "subdistrict": "ท่าดินแดง",
      "postcode": 13120,
      "latitude": 14.416,
      "longitude": 100.388
    },
    {
      "province": "พระนครศรีอยุธยา",
      "district": "ผักไห่",
      "subdistrict": "ดอนลาน",
      "postcode": 13280,
      "latitude": 14.433,
      "longitude": 100.286
    },
    {
      "province": "พระนครศรีอยุธยา",
      "district": "ผักไห่",
      "subdistrict": "นาคู",
      "postcode": 13280,
      "latitude": 14.468,
      "longitude": 100.272
    },
    {
      "province": "พระนครศรีอยุธยา",
      "district": "ผักไห่",
      "subdistrict": "กุฎี",
      "postcode": 13120,
      "latitude": 14.439,
      "longitude": 100.407
    },
    {
      "province": "พระนครศรีอยุธยา",
      "district": "ผักไห่",
      "subdistrict": "ลำตะเคียน",
      "postcode": 13280,
      "latitude": 14.419,
      "longitude": 100.318
    },
    {
      "province": "พระนครศรีอยุธยา",
      "district": "ผักไห่",
      "subdistrict": "โคกช้าง",
      "postcode": 13120,
      "latitude": 14.5,
      "longitude": 100.388
    },
    {
      "province": "พระนครศรีอยุธยา",
      "district": "ผักไห่",
      "subdistrict": "จักราช",
      "postcode": 13280,
      "latitude": 14.447,
      "longitude": 100.34
    },
    {
      "province": "พระนครศรีอยุธยา",
      "district": "ผักไห่",
      "subdistrict": "หนองน้ำใหญ่",
      "postcode": 13280,
      "latitude": 14.474,
      "longitude": 100.311
    },
    {
      "province": "พระนครศรีอยุธยา",
      "district": "ผักไห่",
      "subdistrict": "ลาดชิด",
      "postcode": 13120,
      "latitude": 14.422,
      "longitude": 100.358
    },
    {
      "province": "พระนครศรีอยุธยา",
      "district": "ผักไห่",
      "subdistrict": "หน้าโคก",
      "postcode": 13120,
      "latitude": 14.49,
      "longitude": 100.351
    },
    {
      "province": "พระนครศรีอยุธยา",
      "district": "ผักไห่",
      "subdistrict": "บ้านใหญ่",
      "postcode": 13120,
      "latitude": 14.435,
      "longitude": 100.384
    },
    {
      "province": "พระนครศรีอยุธยา",
      "district": "ภาชี",
      "subdistrict": "ภาชี",
      "postcode": 13140,
      "latitude": 14.442,
      "longitude": 100.725
    },
    {
      "province": "พระนครศรีอยุธยา",
      "district": "ภาชี",
      "subdistrict": "โคกม่วง",
      "postcode": 13140,
      "latitude": 14.428,
      "longitude": 100.75
    },
    {
      "province": "พระนครศรีอยุธยา",
      "district": "ภาชี",
      "subdistrict": "ระโสม",
      "postcode": 13140,
      "latitude": 14.39,
      "longitude": 100.77
    },
    {
      "province": "พระนครศรีอยุธยา",
      "district": "ภาชี",
      "subdistrict": "หนองน้ำใส",
      "postcode": 13140,
      "latitude": 14.457,
      "longitude": 100.751
    },
    {
      "province": "พระนครศรีอยุธยา",
      "district": "ภาชี",
      "subdistrict": "ดอนหญ้านาง",
      "postcode": 13140,
      "latitude": 14.478,
      "longitude": 100.739
    },
    {
      "province": "พระนครศรีอยุธยา",
      "district": "ภาชี",
      "subdistrict": "ไผ่ล้อม",
      "postcode": 13140,
      "latitude": 14.474,
      "longitude": 100.693
    },
    {
      "province": "พระนครศรีอยุธยา",
      "district": "ภาชี",
      "subdistrict": "กระจิว",
      "postcode": 13140,
      "latitude": 14.42,
      "longitude": 100.69
    },
    {
      "province": "พระนครศรีอยุธยา",
      "district": "ภาชี",
      "subdistrict": "พระแก้ว",
      "postcode": 13140,
      "latitude": 14.44,
      "longitude": 100.675
    },
    {
      "province": "พระนครศรีอยุธยา",
      "district": "ลาดบัวหลวง",
      "subdistrict": "ลาดบัวหลวง",
      "postcode": 13230,
      "latitude": 14.193,
      "longitude": 100.319
    },
    {
      "province": "พระนครศรีอยุธยา",
      "district": "ลาดบัวหลวง",
      "subdistrict": "หลักชัย",
      "postcode": 13230,
      "latitude": 14.195,
      "longitude": 100.277
    },
    {
      "province": "พระนครศรีอยุธยา",
      "district": "ลาดบัวหลวง",
      "subdistrict": "สามเมือง",
      "postcode": 13230,
      "latitude": 14.153,
      "longitude": 100.297
    },
    {
      "province": "พระนครศรีอยุธยา",
      "district": "ลาดบัวหลวง",
      "subdistrict": "พระยาบันลือ",
      "postcode": 13230,
      "latitude": 14.161,
      "longitude": 100.395
    },
    {
      "province": "พระนครศรีอยุธยา",
      "district": "ลาดบัวหลวง",
      "subdistrict": "สิงหนาท",
      "postcode": 13230,
      "latitude": 14.132,
      "longitude": 100.423
    },
    {
      "province": "พระนครศรีอยุธยา",
      "district": "ลาดบัวหลวง",
      "subdistrict": "คู้สลอด",
      "postcode": 13230,
      "latitude": 14.196,
      "longitude": 100.369
    },
    {
      "province": "พระนครศรีอยุธยา",
      "district": "ลาดบัวหลวง",
      "subdistrict": "คลองพระยาบันลือ",
      "postcode": 13230,
      "latitude": 14.134,
      "longitude": 100.368
    },
    {
      "province": "พระนครศรีอยุธยา",
      "district": "วังน้อย",
      "subdistrict": "ลำตาเสา",
      "postcode": 13170,
      "latitude": 14.275,
      "longitude": 100.708
    },
    {
      "province": "พระนครศรีอยุธยา",
      "district": "วังน้อย",
      "subdistrict": "บ่อตาโล่",
      "postcode": 13170,
      "latitude": 14.241,
      "longitude": 100.674
    },
    {
      "province": "พระนครศรีอยุธยา",
      "district": "วังน้อย",
      "subdistrict": "วังน้อย",
      "postcode": 13170,
      "latitude": 14.201,
      "longitude": 100.699
    },
    {
      "province": "พระนครศรีอยุธยา",
      "district": "วังน้อย",
      "subdistrict": "ลำไทร",
      "postcode": 13170,
      "latitude": 14.2,
      "longitude": 100.641
    },
    {
      "province": "พระนครศรีอยุธยา",
      "district": "วังน้อย",
      "subdistrict": "สนับทึบ",
      "postcode": 13170,
      "latitude": 14.298,
      "longitude": 100.813
    },
    {
      "province": "พระนครศรีอยุธยา",
      "district": "วังน้อย",
      "subdistrict": "พยอม",
      "postcode": 13170,
      "latitude": 14.166,
      "longitude": 100.632
    },
    {
      "province": "พระนครศรีอยุธยา",
      "district": "วังน้อย",
      "subdistrict": "หันตะเภา",
      "postcode": 13170,
      "latitude": 14.304,
      "longitude": 100.78
    },
    {
      "province": "พระนครศรีอยุธยา",
      "district": "วังน้อย",
      "subdistrict": "วังจุฬา",
      "postcode": 13170,
      "latitude": 14.249,
      "longitude": 100.8
    },
    {
      "province": "พระนครศรีอยุธยา",
      "district": "วังน้อย",
      "subdistrict": "ข้าวงาม",
      "postcode": 13170,
      "latitude": 14.229,
      "longitude": 100.758
    },
    {
      "province": "พระนครศรีอยุธยา",
      "district": "วังน้อย",
      "subdistrict": "ชะแมบ",
      "postcode": 13170,
      "latitude": 14.257,
      "longitude": 100.748
    },
    {
      "province": "พระนครศรีอยุธยา",
      "district": "เสนา",
      "subdistrict": "เสนา",
      "postcode": 13110,
      "latitude": 14.328,
      "longitude": 100.404
    },
    {
      "province": "พระนครศรีอยุธยา",
      "district": "เสนา",
      "subdistrict": "บ้านแพน",
      "postcode": 13110,
      "latitude": 14.342,
      "longitude": 100.417
    },
    {
      "province": "พระนครศรีอยุธยา",
      "district": "เสนา",
      "subdistrict": "เจ้าเจ็ด",
      "postcode": 13110,
      "latitude": 14.303,
      "longitude": 100.378
    },
    {
      "province": "พระนครศรีอยุธยา",
      "district": "เสนา",
      "subdistrict": "สามกอ",
      "postcode": 13110,
      "latitude": 14.306,
      "longitude": 100.399
    },
    {
      "province": "พระนครศรีอยุธยา",
      "district": "เสนา",
      "subdistrict": "บางนมโค",
      "postcode": 13110,
      "latitude": 14.292,
      "longitude": 100.424
    },
    {
      "province": "พระนครศรีอยุธยา",
      "district": "เสนา",
      "subdistrict": "หัวเวียง",
      "postcode": 13110,
      "latitude": 14.376,
      "longitude": 100.402
    },
    {
      "province": "พระนครศรีอยุธยา",
      "district": "เสนา",
      "subdistrict": "มารวิชัย",
      "postcode": 13110,
      "latitude": 14.24,
      "longitude": 100.371
    },
    {
      "province": "พระนครศรีอยุธยา",
      "district": "เสนา",
      "subdistrict": "บ้านโพธิ์",
      "postcode": 13110,
      "latitude": 14.351,
      "longitude": 100.394
    },
    {
      "province": "พระนครศรีอยุธยา",
      "district": "เสนา",
      "subdistrict": "รางจรเข้",
      "postcode": 13110,
      "latitude": 14.351,
      "longitude": 100.366
    },
    {
      "province": "พระนครศรีอยุธยา",
      "district": "เสนา",
      "subdistrict": "บ้านกระทุ่ม",
      "postcode": 13110,
      "latitude": 14.39,
      "longitude": 100.383
    },
    {
      "province": "พระนครศรีอยุธยา",
      "district": "เสนา",
      "subdistrict": "บ้านแถว",
      "postcode": 13110,
      "latitude": 14.301,
      "longitude": 100.348
    },
    {
      "province": "พระนครศรีอยุธยา",
      "district": "เสนา",
      "subdistrict": "ชายนา",
      "postcode": 13110,
      "latitude": 14.258,
      "longitude": 100.348
    },
    {
      "province": "พระนครศรีอยุธยา",
      "district": "เสนา",
      "subdistrict": "สามตุ่ม",
      "postcode": 13110,
      "latitude": 14.24,
      "longitude": 100.406
    },
    {
      "province": "พระนครศรีอยุธยา",
      "district": "เสนา",
      "subdistrict": "ลาดงา",
      "postcode": 13110,
      "latitude": 14.372,
      "longitude": 100.358
    },
    {
      "province": "พระนครศรีอยุธยา",
      "district": "เสนา",
      "subdistrict": "ดอนทอง",
      "postcode": 13110,
      "latitude": 14.24,
      "longitude": 100.306
    },
    {
      "province": "พระนครศรีอยุธยา",
      "district": "เสนา",
      "subdistrict": "บ้านหลวง",
      "postcode": 13110,
      "latitude": 14.278,
      "longitude": 100.401
    },
    {
      "province": "พระนครศรีอยุธยา",
      "district": "เสนา",
      "subdistrict": "เจ้าเสด็จ",
      "postcode": 13110,
      "latitude": 14.331,
      "longitude": 100.363
    },
    {
      "province": "พระนครศรีอยุธยา",
      "district": "บางซ้าย",
      "subdistrict": "บางซ้าย",
      "postcode": 13270,
      "latitude": 14.314,
      "longitude": 100.286
    },
    {
      "province": "พระนครศรีอยุธยา",
      "district": "บางซ้าย",
      "subdistrict": "แก้วฟ้า",
      "postcode": 13270,
      "latitude": 14.313,
      "longitude": 100.326
    },
    {
      "province": "พระนครศรีอยุธยา",
      "district": "บางซ้าย",
      "subdistrict": "เต่าเล่า",
      "postcode": 13270,
      "latitude": 14.34,
      "longitude": 100.319
    },
    {
      "province": "พระนครศรีอยุธยา",
      "district": "บางซ้าย",
      "subdistrict": "ปลายกลัด",
      "postcode": 13270,
      "latitude": 14.382,
      "longitude": 100.315
    },